[
  {
    "source": "openstreetmap",
    "city": "Enköping",
    "name": "",
    "lat": 59.653959,
    "lng": 17.085354,
    "adress": " ",
    "postnr": "",
    "ort": "Enköping",
    "typ": "industrilokal",
    "hemsida": "",
    "telefon": "",
    "osm_tags": {
      "building": "industrial"
    },
    "org_nr": "",
    "omsattning_kr": 0,
    "bransch": ""
  },
  {
    "source": "openstreetmap",
    "city": "Enköping",
    "name": "",
    "lat": 59.697633,
    "lng": 17.098369,
    "adress": " ",
    "postnr": "",
    "ort": "Enköping",
    "typ": "industrilokal",
    "hemsida": "",
    "telefon": "",
    "osm_tags": {
      "building": "industrial"
    },
    "org_nr": "",
    "omsattning_kr": 0,
    "bransch": ""
  },
  {
    "source": "openstreetmap",
    "city": "Enköping",
    "name": "",
    "lat": 59.657421,
    "lng": 17.076299,
    "adress": " ",
    "postnr": "",
    "ort": "Enköping",
    "typ": "industrilokal",
    "hemsida": "",
    "telefon": "",
    "osm_tags": {
      "building": "industrial"
    },
    "org_nr": "",
    "omsattning_kr": 0,
    "bransch": ""
  },
  {
    "source": "openstreetmap",
    "city": "Enköping",
    "name": "",
    "lat": 59.647755,
    "lng": 17.070257,
    "adress": "Gesällgatan 17",
    "postnr": "745 39",
    "ort": "Enköping",
    "typ": "industrilokal",
    "hemsida": "",
    "telefon": "",
    "osm_tags": {
      "addr:city": "Enköping",
      "addr:country": "SE",
      "addr:housenumber": "17",
      "addr:postcode": "745 39",
      "addr:street": "Gesällgatan",
      "building": "industrial"
    },
    "org_nr": "",
    "omsattning_kr": 0,
    "bransch": ""
  },
  {
    "source": "openstreetmap",
    "city": "Enköping",
    "name": "COOP Fryslager Enköping",
    "lat": 59.640111,
    "lng": 17.157649,
    "adress": "Varggatan ",
    "postnr": "",
    "ort": "Enköping",
    "typ": "lager",
    "hemsida": "",
    "telefon": "",
    "osm_tags": {
      "addr:housename": "COOP Fryslager",
      "addr:street": "Varggatan",
      "building": "warehouse",
      "name": "COOP Fryslager Enköping"
    },
    "org_nr": "",
    "omsattning_kr": 0,
    "bransch": ""
  },
  {
    "source": "openstreetmap",
    "city": "Enköping",
    "name": "",
    "lat": 59.647297,
    "lng": 17.076474,
    "adress": "Gesällgatan 11",
    "postnr": "745 39",
    "ort": "Enköping",
    "typ": "industrilokal",
    "hemsida": "",
    "telefon": "",
    "osm_tags": {
      "addr:city": "Enköping",
      "addr:country": "SE",
      "addr:housenumber": "11",
      "addr:postcode": "745 39",
      "addr:street": "Gesällgatan",
      "building": "industrial"
    },
    "org_nr": "",
    "omsattning_kr": 0,
    "bransch": ""
  },
  {
    "source": "openstreetmap",
    "city": "Enköping",
    "name": "",
    "lat": 59.647494,
    "lng": 17.072945,
    "adress": "Gesällgatan 15",
    "postnr": "745 39",
    "ort": "Enköping",
    "typ": "industrilokal",
    "hemsida": "",
    "telefon": "",
    "osm_tags": {
      "addr:city": "Enköping",
      "addr:country": "SE",
      "addr:housenumber": "15",
      "addr:postcode": "745 39",
      "addr:street": "Gesällgatan",
      "building": "industrial"
    },
    "org_nr": "",
    "omsattning_kr": 0,
    "bransch": ""
  },
  {
    "source": "openstreetmap",
    "city": "Enköping",
    "name": "",
    "lat": 59.646991,
    "lng": 17.082644,
    "adress": "Salagatan 5",
    "postnr": "745 39",
    "ort": "Enköping",
    "typ": "industrilokal",
    "hemsida": "",
    "telefon": "",
    "osm_tags": {
      "addr:city": "Enköping",
      "addr:country": "SE",
      "addr:housenumber": "5",
      "addr:postcode": "745 39",
      "addr:street": "Salagatan",
      "building": "industrial"
    },
    "org_nr": "",
    "omsattning_kr": 0,
    "bransch": ""
  },
  {
    "source": "openstreetmap",
    "city": "Enköping",
    "name": "Haga tegelbruk",
    "lat": 59.602641,
    "lng": 17.058164,
    "adress": " ",
    "postnr": "",
    "ort": "Enköping",
    "typ": "industri",
    "hemsida": "",
    "telefon": "",
    "osm_tags": {
      "landuse": "industrial",
      "name": "Haga tegelbruk"
    },
    "org_nr": "",
    "omsattning_kr": 0,
    "bransch": ""
  },
  {
    "source": "openstreetmap",
    "city": "Enköping",
    "name": "",
    "lat": 59.629101,
    "lng": 17.07979,
    "adress": " ",
    "postnr": "",
    "ort": "Enköping",
    "typ": "industrilokal",
    "hemsida": "",
    "telefon": "",
    "osm_tags": {
      "building": "industrial"
    },
    "org_nr": "",
    "omsattning_kr": 0,
    "bransch": ""
  },
  {
    "source": "openstreetmap",
    "city": "Enköping",
    "name": "",
    "lat": 59.637987,
    "lng": 17.06298,
    "adress": "Dr Westerlunds Gata 24",
    "postnr": "74563",
    "ort": "Enköping",
    "typ": "industrilokal",
    "hemsida": "",
    "telefon": "",
    "osm_tags": {
      "addr:city": "Enköping",
      "addr:country": "SE",
      "addr:housenumber": "24",
      "addr:postcode": "74563",
      "addr:street": "Dr Westerlunds Gata",
      "building": "industrial"
    },
    "org_nr": "",
    "omsattning_kr": 0,
    "bransch": ""
  },
  {
    "source": "openstreetmap",
    "city": "Enköping",
    "name": "",
    "lat": 59.637157,
    "lng": 17.081515,
    "adress": " ",
    "postnr": "",
    "ort": "Enköping",
    "typ": "industrilokal",
    "hemsida": "",
    "telefon": "",
    "osm_tags": {
      "building": "industrial"
    },
    "org_nr": "",
    "omsattning_kr": 0,
    "bransch": ""
  },
  {
    "source": "openstreetmap",
    "city": "Enköping",
    "name": "Ena Energi",
    "lat": 59.628202,
    "lng": 17.077532,
    "adress": " ",
    "postnr": "",
    "ort": "Enköping",
    "typ": "industri",
    "hemsida": "",
    "telefon": "",
    "osm_tags": {
      "landuse": "industrial",
      "name": "Ena Energi",
      "power": "plant"
    },
    "org_nr": "",
    "omsattning_kr": 0,
    "bransch": ""
  },
  {
    "source": "openstreetmap",
    "city": "Enköping",
    "name": "",
    "lat": 59.686341,
    "lng": 17.03477,
    "adress": " ",
    "postnr": "",
    "ort": "Enköping",
    "typ": "industrilokal",
    "hemsida": "",
    "telefon": "",
    "osm_tags": {
      "building": "industrial"
    },
    "org_nr": "",
    "omsattning_kr": 0,
    "bransch": ""
  },
  {
    "source": "openstreetmap",
    "city": "Enköping",
    "name": "",
    "lat": 59.699314,
    "lng": 17.009939,
    "adress": " ",
    "postnr": "",
    "ort": "Enköping",
    "typ": "industrilokal",
    "hemsida": "",
    "telefon": "",
    "osm_tags": {
      "building": "industrial"
    },
    "org_nr": "",
    "omsattning_kr": 0,
    "bransch": ""
  },
  {
    "source": "openstreetmap",
    "city": "Västerås",
    "name": "Västerås hamn",
    "lat": 59.592047,
    "lng": 16.520944,
    "adress": " ",
    "postnr": "",
    "ort": "Västerås",
    "typ": "industri",
    "hemsida": "",
    "telefon": "",
    "osm_tags": {
      "landuse": "industrial",
      "name": "Västerås hamn"
    },
    "org_nr": "",
    "omsattning_kr": 0,
    "bransch": ""
  },
  {
    "source": "openstreetmap",
    "city": "Västerås",
    "name": "ABB Motors",
    "lat": 59.591992,
    "lng": 16.497968,
    "adress": " ",
    "postnr": "",
    "ort": "Västerås",
    "typ": "industri",
    "hemsida": "",
    "telefon": "",
    "osm_tags": {
      "landuse": "industrial",
      "name": "ABB Motors"
    },
    "org_nr": "",
    "omsattning_kr": 0,
    "bransch": ""
  },
  {
    "source": "openstreetmap",
    "city": "Västerås",
    "name": "Kraftvärmeverket",
    "lat": 59.586171,
    "lng": 16.514689,
    "adress": " ",
    "postnr": "",
    "ort": "Västerås",
    "typ": "industri",
    "hemsida": "",
    "telefon": "",
    "osm_tags": {
      "landuse": "industrial",
      "name": "Kraftvärmeverket",
      "name:en": "Västerås Power Plant",
      "operator": "Mälarenergi",
      "power": "plant"
    },
    "org_nr": "",
    "omsattning_kr": 0,
    "bransch": ""
  },
  {
    "source": "openstreetmap",
    "city": "Västerås",
    "name": "Tillberga depå",
    "lat": 59.684903,
    "lng": 16.63465,
    "adress": " ",
    "postnr": "",
    "ort": "Västerås",
    "typ": "industri",
    "hemsida": "",
    "telefon": "",
    "osm_tags": {
      "landuse": "industrial",
      "name": "Tillberga depå"
    },
    "org_nr": "",
    "omsattning_kr": 0,
    "bransch": ""
  },
  {
    "source": "openstreetmap",
    "city": "Västerås",
    "name": "Bombardier Transportation",
    "lat": 59.651059,
    "lng": 16.589924,
    "adress": " ",
    "postnr": "",
    "ort": "Västerås",
    "typ": "industrilokal",
    "hemsida": "",
    "telefon": "",
    "osm_tags": {
      "building": "industrial",
      "operator": "Bombardier Transportation"
    },
    "org_nr": "",
    "omsattning_kr": 0,
    "bransch": ""
  },
  {
    "source": "openstreetmap",
    "city": "Västerås",
    "name": "Bomnbardier Transportation (Korvis)",
    "lat": 59.647864,
    "lng": 16.587001,
    "adress": " ",
    "postnr": "",
    "ort": "Västerås",
    "typ": "industrilokal",
    "hemsida": "",
    "telefon": "",
    "osm_tags": {
      "building": "industrial",
      "name": "Bomnbardier Transportation (Korvis)"
    },
    "org_nr": "",
    "omsattning_kr": 0,
    "bransch": ""
  },
  {
    "source": "openstreetmap",
    "city": "Västerås",
    "name": "",
    "lat": 59.614445,
    "lng": 16.603423,
    "adress": "Stockholmsvägen ",
    "postnr": "",
    "ort": "Västerås",
    "typ": "industrilokal",
    "hemsida": "",
    "telefon": "",
    "osm_tags": {
      "addr:street": "Stockholmsvägen",
      "building": "industrial"
    },
    "org_nr": "",
    "omsattning_kr": 0,
    "bransch": ""
  },
  {
    "source": "openstreetmap",
    "city": "Västerås",
    "name": "FedEx",
    "lat": 59.610056,
    "lng": 16.615292,
    "adress": "Lundby Gårdsgata 4",
    "postnr": "72134",
    "ort": "Västerås",
    "typ": "industrilokal",
    "hemsida": "",
    "telefon": "+46 20 025 22 52",
    "osm_tags": {
      "addr:city": "Västerås",
      "addr:country": "SE",
      "addr:housenumber": "4",
      "addr:postcode": "72134",
      "addr:street": "Lundby Gårdsgata",
      "building": "industrial",
      "name": "FedEx",
      "phone": "+46 20 025 22 52"
    },
    "org_nr": "",
    "omsattning_kr": 0,
    "bransch": ""
  },
  {
    "source": "openstreetmap",
    "city": "Västerås",
    "name": "",
    "lat": 59.634347,
    "lng": 16.594279,
    "adress": " ",
    "postnr": "",
    "ort": "Västerås",
    "typ": "industrilokal",
    "hemsida": "",
    "telefon": "",
    "osm_tags": {
      "building": "industrial"
    },
    "org_nr": "",
    "omsattning_kr": 0,
    "bransch": ""
  },
  {
    "source": "openstreetmap",
    "city": "Västerås",
    "name": "",
    "lat": 59.607395,
    "lng": 16.558118,
    "adress": " ",
    "postnr": "",
    "ort": "Västerås",
    "typ": "industrilokal",
    "hemsida": "",
    "telefon": "",
    "osm_tags": {
      "building": "industrial",
      "height": "68"
    },
    "org_nr": "",
    "omsattning_kr": 0,
    "bransch": ""
  },
  {
    "source": "openstreetmap",
    "city": "Västerås",
    "name": "Turbinhuset",
    "lat": 59.607252,
    "lng": 16.54483,
    "adress": " ",
    "postnr": "",
    "ort": "Västerås",
    "typ": "industrilokal",
    "hemsida": "",
    "telefon": "",
    "osm_tags": {
      "building": "industrial",
      "building:colour": "firebrick",
      "building:levels": "1",
      "building:material": "brick",
      "name": "Turbinhuset",
      "roof:colour": "black",
      "roof:material": "metal",
      "roof:shape": "hipped",
      "start_date": "1880s",
      "wikidata": "Q10706497",
      "wikipedia": "sv:Turbinhuset"
    },
    "org_nr": "",
    "omsattning_kr": 0,
    "bransch": ""
  },
  {
    "source": "openstreetmap",
    "city": "Västerås",
    "name": "",
    "lat": 59.593513,
    "lng": 16.506124,
    "adress": " ",
    "postnr": "",
    "ort": "Västerås",
    "typ": "industrilokal",
    "hemsida": "",
    "telefon": "",
    "osm_tags": {
      "building": "industrial"
    },
    "org_nr": "",
    "omsattning_kr": 0,
    "bransch": ""
  },
  {
    "source": "openstreetmap",
    "city": "Västerås",
    "name": "NCC",
    "lat": 59.642231,
    "lng": 16.596458,
    "adress": " ",
    "postnr": "",
    "ort": "Västerås",
    "typ": "industri",
    "hemsida": "",
    "telefon": "",
    "osm_tags": {
      "access": "private",
      "landuse": "industrial",
      "name": "NCC"
    },
    "org_nr": "",
    "omsattning_kr": 0,
    "bransch": ""
  },
  {
    "source": "openstreetmap",
    "city": "Västerås",
    "name": "Malmasågen",
    "lat": 59.648834,
    "lng": 16.601967,
    "adress": " ",
    "postnr": "",
    "ort": "Västerås",
    "typ": "industri",
    "hemsida": "",
    "telefon": "",
    "osm_tags": {
      "landuse": "industrial",
      "name": "Malmasågen"
    },
    "org_nr": "",
    "omsattning_kr": 0,
    "bransch": ""
  },
  {
    "source": "openstreetmap",
    "city": "Västerås",
    "name": "Northvolt Labs AB",
    "lat": 59.639895,
    "lng": 16.596498,
    "adress": " ",
    "postnr": "",
    "ort": "Västerås",
    "typ": "industri",
    "hemsida": "",
    "telefon": "",
    "osm_tags": {
      "access": "restricted",
      "barrier": "fence",
      "landuse": "industrial",
      "name": "Northvolt Labs AB"
    },
    "org_nr": "",
    "omsattning_kr": 0,
    "bransch": ""
  },
  {
    "source": "openstreetmap",
    "city": "Västerås",
    "name": "AWS eu-north-1 Availability Zone V",
    "lat": 59.649508,
    "lng": 16.580665,
    "adress": " ",
    "postnr": "",
    "ort": "Västerås",
    "typ": "industrilokal",
    "hemsida": "",
    "telefon": "",
    "osm_tags": {
      "building": "industrial",
      "description": "AWS Datacenter",
      "name": "AWS eu-north-1 Availability Zone V",
      "operator": "Amazon Web Services",
      "operator:short": "AWS",
      "operator:wikidata": "Q456157",
      "telecom": "data_center"
    },
    "org_nr": "",
    "omsattning_kr": 0,
    "bransch": ""
  },
  {
    "source": "openstreetmap",
    "city": "Västerås",
    "name": "",
    "lat": 59.647508,
    "lng": 16.548004,
    "adress": " ",
    "postnr": "",
    "ort": "Västerås",
    "typ": "industrilokal",
    "hemsida": "",
    "telefon": "",
    "osm_tags": {
      "building": "industrial"
    },
    "org_nr": "",
    "omsattning_kr": 0,
    "bransch": ""
  },
  {
    "source": "openstreetmap",
    "city": "Västerås",
    "name": "",
    "lat": 59.613208,
    "lng": 16.465408,
    "adress": "Kuggstångsgatan ",
    "postnr": "",
    "ort": "Västerås",
    "typ": "industrilokal",
    "hemsida": "",
    "telefon": "",
    "osm_tags": {
      "addr:street": "Kuggstångsgatan",
      "building": "industrial"
    },
    "org_nr": "",
    "omsattning_kr": 0,
    "bransch": ""
  },
  {
    "source": "openstreetmap",
    "city": "Västerås",
    "name": "",
    "lat": 59.63674,
    "lng": 16.588847,
    "adress": " ",
    "postnr": "",
    "ort": "Västerås",
    "typ": "industrilokal",
    "hemsida": "",
    "telefon": "",
    "osm_tags": {
      "building": "industrial"
    },
    "org_nr": "",
    "omsattning_kr": 0,
    "bransch": ""
  },
  {
    "source": "openstreetmap",
    "city": "Västerås",
    "name": "",
    "lat": 59.609914,
    "lng": 16.638027,
    "adress": " ",
    "postnr": "",
    "ort": "Västerås",
    "typ": "industrilokal",
    "hemsida": "",
    "telefon": "",
    "osm_tags": {
      "building": "industrial"
    },
    "org_nr": "",
    "omsattning_kr": 0,
    "bransch": ""
  },
  {
    "source": "openstreetmap",
    "city": "Västerås",
    "name": "",
    "lat": 59.611643,
    "lng": 16.464159,
    "adress": " ",
    "postnr": "",
    "ort": "Västerås",
    "typ": "industrilokal",
    "hemsida": "",
    "telefon": "",
    "osm_tags": {
      "building": "industrial"
    },
    "org_nr": "",
    "omsattning_kr": 0,
    "bransch": ""
  },
  {
    "source": "openstreetmap",
    "city": "Västerås",
    "name": "",
    "lat": 59.656042,
    "lng": 16.563538,
    "adress": " ",
    "postnr": "",
    "ort": "Västerås",
    "typ": "industrilokal",
    "hemsida": "",
    "telefon": "",
    "osm_tags": {
      "building": "industrial"
    },
    "org_nr": "",
    "omsattning_kr": 0,
    "bransch": ""
  },
  {
    "source": "openstreetmap",
    "city": "Västerås",
    "name": "",
    "lat": 59.586006,
    "lng": 16.453538,
    "adress": " ",
    "postnr": "",
    "ort": "Västerås",
    "typ": "industrilokal",
    "hemsida": "",
    "telefon": "",
    "osm_tags": {
      "building": "industrial"
    },
    "org_nr": "",
    "omsattning_kr": 0,
    "bransch": ""
  },
  {
    "source": "openstreetmap",
    "city": "Västerås",
    "name": "",
    "lat": 59.585158,
    "lng": 16.458301,
    "adress": " ",
    "postnr": "",
    "ort": "Västerås",
    "typ": "industrilokal",
    "hemsida": "",
    "telefon": "",
    "osm_tags": {
      "building": "industrial"
    },
    "org_nr": "",
    "omsattning_kr": 0,
    "bransch": ""
  },
  {
    "source": "openstreetmap",
    "city": "Västerås",
    "name": "",
    "lat": 59.690847,
    "lng": 16.579223,
    "adress": " ",
    "postnr": "",
    "ort": "Västerås",
    "typ": "industrilokal",
    "hemsida": "",
    "telefon": "",
    "osm_tags": {
      "building": "industrial"
    },
    "org_nr": "",
    "omsattning_kr": 0,
    "bransch": ""
  },
  {
    "source": "openstreetmap",
    "city": "Västerås",
    "name": "Målerispektrum",
    "lat": 59.614741,
    "lng": 16.573019,
    "adress": " ",
    "postnr": "",
    "ort": "Västerås",
    "typ": "industrilokal",
    "hemsida": "",
    "telefon": "",
    "osm_tags": {
      "building": "industrial",
      "name": "Målerispektrum"
    },
    "org_nr": "",
    "omsattning_kr": 0,
    "bransch": ""
  },
  {
    "source": "openstreetmap",
    "city": "Eskilstuna",
    "name": "Nyby bruk",
    "lat": 59.430352,
    "lng": 16.464365,
    "adress": " ",
    "postnr": "",
    "ort": "Eskilstuna",
    "typ": "industri",
    "hemsida": "",
    "telefon": "",
    "osm_tags": {
      "landuse": "industrial",
      "name": "Nyby bruk",
      "source": "Bing"
    },
    "org_nr": "",
    "omsattning_kr": 0,
    "bransch": ""
  },
  {
    "source": "openstreetmap",
    "city": "Eskilstuna",
    "name": "",
    "lat": 59.388403,
    "lng": 16.484661,
    "adress": "Fabriksgatan 11",
    "postnr": "633 46",
    "ort": "Eskilstuna",
    "typ": "industrilokal",
    "hemsida": "",
    "telefon": "",
    "osm_tags": {
      "addr:city": "Eskilstuna",
      "addr:country": "SE",
      "addr:housenumber": "11",
      "addr:postcode": "633 46",
      "addr:street": "Fabriksgatan",
      "building": "industrial",
      "source": "Bing"
    },
    "org_nr": "",
    "omsattning_kr": 0,
    "bransch": ""
  },
  {
    "source": "openstreetmap",
    "city": "Eskilstuna",
    "name": "",
    "lat": 59.388037,
    "lng": 16.488487,
    "adress": "Fabriksgatan 7",
    "postnr": "633 46",
    "ort": "Eskilstuna",
    "typ": "industrilokal",
    "hemsida": "",
    "telefon": "",
    "osm_tags": {
      "addr:city": "Eskilstuna",
      "addr:country": "SE",
      "addr:housenumber": "7",
      "addr:postcode": "633 46",
      "addr:street": "Fabriksgatan",
      "building": "industrial",
      "source": "Bing"
    },
    "org_nr": "",
    "omsattning_kr": 0,
    "bransch": ""
  },
  {
    "source": "openstreetmap",
    "city": "Eskilstuna",
    "name": "",
    "lat": 59.386961,
    "lng": 16.485307,
    "adress": "Mått Johanssons väg 26",
    "postnr": "633 46",
    "ort": "Eskilstuna",
    "typ": "industrilokal",
    "hemsida": "",
    "telefon": "",
    "osm_tags": {
      "addr:city": "Eskilstuna",
      "addr:country": "SE",
      "addr:housenumber": "26",
      "addr:postcode": "633 46",
      "addr:street": "Mått Johanssons väg",
      "building": "industrial",
      "source": "Bing"
    },
    "org_nr": "",
    "omsattning_kr": 0,
    "bransch": ""
  },
  {
    "source": "openstreetmap",
    "city": "Eskilstuna",
    "name": "",
    "lat": 59.387904,
    "lng": 16.481739,
    "adress": "Mått Johanssons väg 36",
    "postnr": "633 46",
    "ort": "Eskilstuna",
    "typ": "industrilokal",
    "hemsida": "",
    "telefon": "",
    "osm_tags": {
      "addr:city": "Eskilstuna",
      "addr:country": "SE",
      "addr:housenumber": "36",
      "addr:postcode": "633 46",
      "addr:street": "Mått Johanssons väg",
      "building": "industrial",
      "source": "Bing"
    },
    "org_nr": "",
    "omsattning_kr": 0,
    "bransch": ""
  },
  {
    "source": "openstreetmap",
    "city": "Eskilstuna",
    "name": "Grönsta industriområde",
    "lat": 59.378239,
    "lng": 16.578878,
    "adress": " ",
    "postnr": "",
    "ort": "Eskilstuna",
    "typ": "industri",
    "hemsida": "",
    "telefon": "",
    "osm_tags": {
      "landuse": "industrial",
      "name": "Grönsta industriområde",
      "source": "Bing"
    },
    "org_nr": "",
    "omsattning_kr": 0,
    "bransch": ""
  },
  {
    "source": "openstreetmap",
    "city": "Eskilstuna",
    "name": "",
    "lat": 59.37744,
    "lng": 16.575374,
    "adress": "Grönsta industriväg 4",
    "postnr": "633 62",
    "ort": "Eskilstuna",
    "typ": "industrilokal",
    "hemsida": "",
    "telefon": "",
    "osm_tags": {
      "addr:city": "Eskilstuna",
      "addr:housenumber": "4",
      "addr:postcode": "633 62",
      "addr:street": "Grönsta industriväg",
      "building": "industrial"
    },
    "org_nr": "",
    "omsattning_kr": 0,
    "bransch": ""
  },
  {
    "source": "openstreetmap",
    "city": "Eskilstuna",
    "name": "",
    "lat": 59.420234,
    "lng": 16.466714,
    "adress": " ",
    "postnr": "",
    "ort": "Eskilstuna",
    "typ": "industrilokal",
    "hemsida": "",
    "telefon": "",
    "osm_tags": {
      "building": "industrial"
    },
    "org_nr": "",
    "omsattning_kr": 0,
    "bransch": ""
  },
  {
    "source": "openstreetmap",
    "city": "Eskilstuna",
    "name": "",
    "lat": 59.41894,
    "lng": 16.467568,
    "adress": "Ruths gränd 4",
    "postnr": "644 31",
    "ort": "Torshälla",
    "typ": "industrilokal",
    "hemsida": "",
    "telefon": "",
    "osm_tags": {
      "addr:city": "Torshälla",
      "addr:housenumber": "4",
      "addr:postcode": "644 31",
      "addr:street": "Ruths gränd",
      "building": "industrial"
    },
    "org_nr": "",
    "omsattning_kr": 0,
    "bransch": ""
  },
  {
    "source": "openstreetmap",
    "city": "Eskilstuna",
    "name": "",
    "lat": 59.419372,
    "lng": 16.470314,
    "adress": " ",
    "postnr": "",
    "ort": "Eskilstuna",
    "typ": "industrilokal",
    "hemsida": "",
    "telefon": "",
    "osm_tags": {
      "building": "industrial"
    },
    "org_nr": "",
    "omsattning_kr": 0,
    "bransch": ""
  },
  {
    "source": "openstreetmap",
    "city": "Eskilstuna",
    "name": "Eklunda industriområde",
    "lat": 59.411878,
    "lng": 16.470641,
    "adress": " ",
    "postnr": "",
    "ort": "Eskilstuna",
    "typ": "industri",
    "hemsida": "",
    "telefon": "",
    "osm_tags": {
      "landuse": "industrial",
      "name": "Eklunda industriområde"
    },
    "org_nr": "",
    "omsattning_kr": 0,
    "bransch": ""
  },
  {
    "source": "openstreetmap",
    "city": "Eskilstuna",
    "name": "",
    "lat": 59.429415,
    "lng": 16.459183,
    "adress": " ",
    "postnr": "",
    "ort": "Eskilstuna",
    "typ": "industrilokal",
    "hemsida": "",
    "telefon": "",
    "osm_tags": {
      "building": "industrial"
    },
    "org_nr": "",
    "omsattning_kr": 0,
    "bransch": ""
  },
  {
    "source": "openstreetmap",
    "city": "Eskilstuna",
    "name": "",
    "lat": 59.427481,
    "lng": 16.463189,
    "adress": " ",
    "postnr": "",
    "ort": "Eskilstuna",
    "typ": "industrilokal",
    "hemsida": "",
    "telefon": "",
    "osm_tags": {
      "building": "industrial"
    },
    "org_nr": "",
    "omsattning_kr": 0,
    "bransch": ""
  },
  {
    "source": "openstreetmap",
    "city": "Eskilstuna",
    "name": "",
    "lat": 59.430414,
    "lng": 16.470359,
    "adress": " ",
    "postnr": "",
    "ort": "Eskilstuna",
    "typ": "industrilokal",
    "hemsida": "",
    "telefon": "",
    "osm_tags": {
      "building": "industrial"
    },
    "org_nr": "",
    "omsattning_kr": 0,
    "bransch": ""
  },
  {
    "source": "openstreetmap",
    "city": "Eskilstuna",
    "name": "",
    "lat": 59.426502,
    "lng": 16.465297,
    "adress": " ",
    "postnr": "",
    "ort": "Eskilstuna",
    "typ": "industrilokal",
    "hemsida": "",
    "telefon": "",
    "osm_tags": {
      "building": "industrial"
    },
    "org_nr": "",
    "omsattning_kr": 0,
    "bransch": ""
  },
  {
    "source": "openstreetmap",
    "city": "Eskilstuna",
    "name": "",
    "lat": 59.432556,
    "lng": 16.471704,
    "adress": " ",
    "postnr": "",
    "ort": "Eskilstuna",
    "typ": "industrilokal",
    "hemsida": "",
    "telefon": "",
    "osm_tags": {
      "building": "industrial"
    },
    "org_nr": "",
    "omsattning_kr": 0,
    "bransch": ""
  },
  {
    "source": "openstreetmap",
    "city": "Eskilstuna",
    "name": "",
    "lat": 59.428217,
    "lng": 16.456975,
    "adress": " ",
    "postnr": "",
    "ort": "Eskilstuna",
    "typ": "industrilokal",
    "hemsida": "",
    "telefon": "",
    "osm_tags": {
      "building": "industrial"
    },
    "org_nr": "",
    "omsattning_kr": 0,
    "bransch": ""
  },
  {
    "source": "openstreetmap",
    "city": "Eskilstuna",
    "name": "",
    "lat": 59.432833,
    "lng": 16.463362,
    "adress": " ",
    "postnr": "",
    "ort": "Eskilstuna",
    "typ": "industrilokal",
    "hemsida": "",
    "telefon": "",
    "osm_tags": {
      "building": "industrial"
    },
    "org_nr": "",
    "omsattning_kr": 0,
    "bransch": ""
  },
  {
    "source": "openstreetmap",
    "city": "Eskilstuna",
    "name": "",
    "lat": 59.410543,
    "lng": 16.468449,
    "adress": " ",
    "postnr": "",
    "ort": "Eskilstuna",
    "typ": "industrilokal",
    "hemsida": "",
    "telefon": "",
    "osm_tags": {
      "building": "industrial"
    },
    "org_nr": "",
    "omsattning_kr": 0,
    "bransch": ""
  },
  {
    "source": "openstreetmap",
    "city": "Eskilstuna",
    "name": "",
    "lat": 59.410056,
    "lng": 16.47363,
    "adress": " ",
    "postnr": "",
    "ort": "Eskilstuna",
    "typ": "industrilokal",
    "hemsida": "",
    "telefon": "",
    "osm_tags": {
      "building": "industrial"
    },
    "org_nr": "",
    "omsattning_kr": 0,
    "bransch": ""
  },
  {
    "source": "openstreetmap",
    "city": "Eskilstuna",
    "name": "",
    "lat": 59.411633,
    "lng": 16.466506,
    "adress": " ",
    "postnr": "",
    "ort": "Eskilstuna",
    "typ": "industrilokal",
    "hemsida": "",
    "telefon": "",
    "osm_tags": {
      "building": "industrial"
    },
    "org_nr": "",
    "omsattning_kr": 0,
    "bransch": ""
  },
  {
    "source": "openstreetmap",
    "city": "Eskilstuna",
    "name": "",
    "lat": 59.414007,
    "lng": 16.466131,
    "adress": " ",
    "postnr": "",
    "ort": "Eskilstuna",
    "typ": "industrilokal",
    "hemsida": "",
    "telefon": "",
    "osm_tags": {
      "building": "industrial"
    },
    "org_nr": "",
    "omsattning_kr": 0,
    "bransch": ""
  },
  {
    "source": "openstreetmap",
    "city": "Eskilstuna",
    "name": "",
    "lat": 59.412328,
    "lng": 16.473362,
    "adress": " ",
    "postnr": "",
    "ort": "Eskilstuna",
    "typ": "industrilokal",
    "hemsida": "",
    "telefon": "",
    "osm_tags": {
      "building": "industrial"
    },
    "org_nr": "",
    "omsattning_kr": 0,
    "bransch": ""
  },
  {
    "source": "openstreetmap",
    "city": "Eskilstuna",
    "name": "",
    "lat": 59.413697,
    "lng": 16.474407,
    "adress": " ",
    "postnr": "",
    "ort": "Eskilstuna",
    "typ": "industrilokal",
    "hemsida": "",
    "telefon": "",
    "osm_tags": {
      "building": "industrial"
    },
    "org_nr": "",
    "omsattning_kr": 0,
    "bransch": ""
  },
  {
    "source": "openstreetmap",
    "city": "Eskilstuna",
    "name": "",
    "lat": 59.34934,
    "lng": 16.494002,
    "adress": " ",
    "postnr": "",
    "ort": "Eskilstuna",
    "typ": "industrilokal",
    "hemsida": "",
    "telefon": "",
    "osm_tags": {
      "building": "industrial"
    },
    "org_nr": "",
    "omsattning_kr": 0,
    "bransch": ""
  },
  {
    "source": "openstreetmap",
    "city": "Eskilstuna",
    "name": "",
    "lat": 59.350937,
    "lng": 16.494694,
    "adress": " ",
    "postnr": "",
    "ort": "Eskilstuna",
    "typ": "industrilokal",
    "hemsida": "",
    "telefon": "",
    "osm_tags": {
      "building": "industrial"
    },
    "org_nr": "",
    "omsattning_kr": 0,
    "bransch": ""
  },
  {
    "source": "openstreetmap",
    "city": "Eskilstuna",
    "name": "",
    "lat": 59.351282,
    "lng": 16.489326,
    "adress": " ",
    "postnr": "",
    "ort": "Eskilstuna",
    "typ": "industrilokal",
    "hemsida": "",
    "telefon": "",
    "osm_tags": {
      "building": "industrial"
    },
    "org_nr": "",
    "omsattning_kr": 0,
    "bransch": ""
  },
  {
    "source": "openstreetmap",
    "city": "Eskilstuna",
    "name": "",
    "lat": 59.350291,
    "lng": 16.491383,
    "adress": " ",
    "postnr": "",
    "ort": "Eskilstuna",
    "typ": "industrilokal",
    "hemsida": "",
    "telefon": "",
    "osm_tags": {
      "building": "industrial"
    },
    "org_nr": "",
    "omsattning_kr": 0,
    "bransch": ""
  },
  {
    "source": "openstreetmap",
    "city": "Eskilstuna",
    "name": "",
    "lat": 59.351217,
    "lng": 16.486156,
    "adress": " ",
    "postnr": "",
    "ort": "Eskilstuna",
    "typ": "industrilokal",
    "hemsida": "",
    "telefon": "",
    "osm_tags": {
      "building": "industrial"
    },
    "org_nr": "",
    "omsattning_kr": 0,
    "bransch": ""
  },
  {
    "source": "openstreetmap",
    "city": "Eskilstuna",
    "name": "",
    "lat": 59.349798,
    "lng": 16.48644,
    "adress": " ",
    "postnr": "",
    "ort": "Eskilstuna",
    "typ": "industrilokal",
    "hemsida": "",
    "telefon": "",
    "osm_tags": {
      "building": "industrial"
    },
    "org_nr": "",
    "omsattning_kr": 0,
    "bransch": ""
  },
  {
    "source": "openstreetmap",
    "city": "Eskilstuna",
    "name": "",
    "lat": 59.350912,
    "lng": 16.482934,
    "adress": " ",
    "postnr": "",
    "ort": "Eskilstuna",
    "typ": "industrilokal",
    "hemsida": "",
    "telefon": "",
    "osm_tags": {
      "building": "industrial"
    },
    "org_nr": "",
    "omsattning_kr": 0,
    "bransch": ""
  },
  {
    "source": "openstreetmap",
    "city": "Eskilstuna",
    "name": "",
    "lat": 59.383544,
    "lng": 16.505773,
    "adress": " ",
    "postnr": "",
    "ort": "Eskilstuna",
    "typ": "industrilokal",
    "hemsida": "",
    "telefon": "",
    "osm_tags": {
      "building": "industrial"
    },
    "org_nr": "",
    "omsattning_kr": 0,
    "bransch": ""
  },
  {
    "source": "openstreetmap",
    "city": "Eskilstuna",
    "name": "",
    "lat": 59.374719,
    "lng": 16.542074,
    "adress": " ",
    "postnr": "",
    "ort": "Eskilstuna",
    "typ": "industrilokal",
    "hemsida": "",
    "telefon": "",
    "osm_tags": {
      "building": "industrial"
    },
    "org_nr": "",
    "omsattning_kr": 0,
    "bransch": ""
  },
  {
    "source": "openstreetmap",
    "city": "Eskilstuna",
    "name": "EKTAB",
    "lat": 59.348139,
    "lng": 16.475861,
    "adress": "Montörgatan 1",
    "postnr": "",
    "ort": "Eskilstuna",
    "typ": "industrilokal",
    "hemsida": "",
    "telefon": "",
    "osm_tags": {
      "addr:city": "Eskilstuna",
      "addr:country": "SE",
      "addr:housename": "EKTAB",
      "addr:housenumber": "1",
      "addr:street": "Montörgatan",
      "building": "industrial",
      "name": "EKTAB"
    },
    "org_nr": "",
    "omsattning_kr": 0,
    "bransch": ""
  },
  {
    "source": "openstreetmap",
    "city": "Eskilstuna",
    "name": "",
    "lat": 59.386794,
    "lng": 16.489577,
    "adress": "Fabriksgatan 4",
    "postnr": "633 46",
    "ort": "Eskilstuna",
    "typ": "industrilokal",
    "hemsida": "",
    "telefon": "",
    "osm_tags": {
      "addr:city": "Eskilstuna",
      "addr:country": "SE",
      "addr:housenumber": "4",
      "addr:postcode": "633 46",
      "addr:street": "Fabriksgatan",
      "building": "industrial"
    },
    "org_nr": "",
    "omsattning_kr": 0,
    "bransch": ""
  },
  {
    "source": "openstreetmap",
    "city": "Eskilstuna",
    "name": "",
    "lat": 59.385653,
    "lng": 16.494197,
    "adress": " ",
    "postnr": "",
    "ort": "Eskilstuna",
    "typ": "industrilokal",
    "hemsida": "",
    "telefon": "",
    "osm_tags": {
      "building": "industrial"
    },
    "org_nr": "",
    "omsattning_kr": 0,
    "bransch": ""
  },
  {
    "source": "openstreetmap",
    "city": "Eskilstuna",
    "name": "",
    "lat": 59.38736,
    "lng": 16.49248,
    "adress": " ",
    "postnr": "",
    "ort": "Eskilstuna",
    "typ": "industrilokal",
    "hemsida": "",
    "telefon": "",
    "osm_tags": {
      "building": "industrial"
    },
    "org_nr": "",
    "omsattning_kr": 0,
    "bransch": ""
  },
  {
    "source": "openstreetmap",
    "city": "Eskilstuna",
    "name": "",
    "lat": 59.37698,
    "lng": 16.512039,
    "adress": " ",
    "postnr": "",
    "ort": "Eskilstuna",
    "typ": "industrilokal",
    "hemsida": "https://www.strawberry.se/hotell/sverige/eskilstuna/home-hotel-bolinder-munktell/?utm_campaign=gmb-listing&utm_medium=organic&utm_source=google",
    "telefon": "",
    "osm_tags": {
      "building": "industrial"
    },
    "org_nr": "",
    "omsattning_kr": 0,
    "bransch": ""
  },
  {
    "source": "openstreetmap",
    "city": "Eskilstuna",
    "name": "DHL",
    "lat": 59.387365,
    "lng": 16.45003,
    "adress": " ",
    "postnr": "",
    "ort": "Eskilstuna",
    "typ": "industri",
    "hemsida": "",
    "telefon": "",
    "osm_tags": {
      "landuse": "industrial",
      "name": "DHL"
    },
    "org_nr": "",
    "omsattning_kr": 0,
    "bransch": ""
  },
  {
    "source": "openstreetmap",
    "city": "Eskilstuna",
    "name": "Eskilstuna Handelsstål AB",
    "lat": 59.400904,
    "lng": 16.429443,
    "adress": " ",
    "postnr": "",
    "ort": "Eskilstuna",
    "typ": "industrilokal",
    "hemsida": "",
    "telefon": "",
    "osm_tags": {
      "building": "industrial",
      "name": "Eskilstuna Handelsstål AB"
    },
    "org_nr": "",
    "omsattning_kr": 0,
    "bransch": ""
  },
  {
    "source": "openstreetmap",
    "city": "Eskilstuna",
    "name": "",
    "lat": 59.375601,
    "lng": 16.440433,
    "adress": " ",
    "postnr": "",
    "ort": "Eskilstuna",
    "typ": "industrilokal",
    "hemsida": "",
    "telefon": "",
    "osm_tags": {
      "building": "industrial"
    },
    "org_nr": "",
    "omsattning_kr": 0,
    "bransch": ""
  },
  {
    "source": "openstreetmap",
    "city": "Eskilstuna",
    "name": "",
    "lat": 59.413784,
    "lng": 16.470989,
    "adress": " ",
    "postnr": "",
    "ort": "Eskilstuna",
    "typ": "industrilokal",
    "hemsida": "",
    "telefon": "",
    "osm_tags": {
      "building": "industrial"
    },
    "org_nr": "",
    "omsattning_kr": 0,
    "bransch": ""
  },
  {
    "source": "openstreetmap",
    "city": "Eskilstuna",
    "name": "Volvo Demofält",
    "lat": 59.411693,
    "lng": 16.429511,
    "adress": " ",
    "postnr": "",
    "ort": "Eskilstuna",
    "typ": "industri",
    "hemsida": "",
    "telefon": "",
    "osm_tags": {
      "landuse": "industrial",
      "name": "Volvo Demofält"
    },
    "org_nr": "",
    "omsattning_kr": 0,
    "bransch": ""
  },
  {
    "source": "openstreetmap",
    "city": "Eskilstuna",
    "name": "",
    "lat": 59.362628,
    "lng": 16.512008,
    "adress": " ",
    "postnr": "",
    "ort": "Eskilstuna",
    "typ": "industrilokal",
    "hemsida": "",
    "telefon": "",
    "osm_tags": {
      "building": "industrial"
    },
    "org_nr": "",
    "omsattning_kr": 0,
    "bransch": ""
  },
  {
    "source": "openstreetmap",
    "city": "Eskilstuna",
    "name": "",
    "lat": 59.382068,
    "lng": 16.481431,
    "adress": " ",
    "postnr": "",
    "ort": "Eskilstuna",
    "typ": "industrilokal",
    "hemsida": "",
    "telefon": "",
    "osm_tags": {
      "building": "industrial"
    },
    "org_nr": "",
    "omsattning_kr": 0,
    "bransch": ""
  },
  {
    "source": "openstreetmap",
    "city": "Eskilstuna",
    "name": "",
    "lat": 59.3641,
    "lng": 16.685086,
    "adress": " ",
    "postnr": "",
    "ort": "Eskilstuna",
    "typ": "industrilokal",
    "hemsida": "",
    "telefon": "",
    "osm_tags": {
      "building": "industrial"
    },
    "org_nr": "",
    "omsattning_kr": 0,
    "bransch": ""
  },
  {
    "source": "openstreetmap",
    "city": "Eskilstuna",
    "name": "",
    "lat": 59.384039,
    "lng": 16.49192,
    "adress": " ",
    "postnr": "",
    "ort": "Eskilstuna",
    "typ": "lager",
    "hemsida": "",
    "telefon": "",
    "osm_tags": {
      "building": "warehouse"
    },
    "org_nr": "",
    "omsattning_kr": 0,
    "bransch": ""
  },
  {
    "source": "openstreetmap",
    "city": "Eskilstuna",
    "name": "EPC Sverige AB",
    "lat": 59.366663,
    "lng": 16.62663,
    "adress": "Hugelsta ",
    "postnr": "635 02",
    "ort": "Eskilstuna",
    "typ": "fabrik",
    "hemsida": "https://www.epc-groupe.se/",
    "telefon": "+46 16 13 90 97",
    "osm_tags": {
      "addr:city": "Eskilstuna",
      "addr:postcode": "635 02",
      "addr:street": "Hugelsta",
      "email": "info@epc-groupe.se",
      "fax": "+46 16 12 87 10",
      "industrial": "factory",
      "landuse": "industrial",
      "name": "EPC Sverige AB",
      "phone": "+46 16 13 90 97",
      "website": "https://www.epc-groupe.se/",
      "wikidata": "Q48805184",
      "wikipedia": "en:EPC Groupe"
    },
    "org_nr": "",
    "omsattning_kr": 0,
    "bransch": ""
  },
  {
    "source": "openstreetmap",
    "city": "Eskilstuna",
    "name": "",
    "lat": 59.34342,
    "lng": 16.531753,
    "adress": " ",
    "postnr": "",
    "ort": "Eskilstuna",
    "typ": "industrilokal",
    "hemsida": "",
    "telefon": "",
    "osm_tags": {
      "building": "industrial"
    },
    "org_nr": "",
    "omsattning_kr": 0,
    "bransch": ""
  },
  {
    "source": "openstreetmap",
    "city": "Strängnäs",
    "name": "Bilskrot",
    "lat": 59.336005,
    "lng": 17.048187,
    "adress": " ",
    "postnr": "",
    "ort": "Strängnäs",
    "typ": "industri",
    "hemsida": "",
    "telefon": "",
    "osm_tags": {
      "industrial": "scrap_yard",
      "landuse": "industrial",
      "name": "Bilskrot",
      "note": "Ja, den heter faktiskt Bilskrot"
    },
    "org_nr": "",
    "omsattning_kr": 0,
    "bransch": ""
  },
  {
    "source": "openstreetmap",
    "city": "Strängnäs",
    "name": "Strängnäs Bilskrot",
    "lat": 59.335816,
    "lng": 17.05494,
    "adress": " ",
    "postnr": "",
    "ort": "Strängnäs",
    "typ": "industri",
    "hemsida": "",
    "telefon": "",
    "osm_tags": {
      "industrial": "scrap_yard",
      "landuse": "industrial",
      "name": "Strängnäs Bilskrot"
    },
    "org_nr": "",
    "omsattning_kr": 0,
    "bransch": ""
  },
  {
    "source": "openstreetmap",
    "city": "Strängnäs",
    "name": "Finja Betong AB",
    "lat": 59.324311,
    "lng": 17.063071,
    "adress": "Betongvägen 15",
    "postnr": "64594",
    "ort": "STRÄNGNÄS",
    "typ": "fabrik",
    "hemsida": "",
    "telefon": "",
    "osm_tags": {
      "addr:city": "STRÄNGNÄS",
      "addr:country": "SE",
      "addr:housenumber": "15",
      "addr:postcode": "64594",
      "addr:street": "Betongvägen",
      "industrial": "factory",
      "landuse": "industrial",
      "name": "Finja Betong AB"
    },
    "org_nr": "",
    "omsattning_kr": 0,
    "bransch": ""
  },
  {
    "source": "openstreetmap",
    "city": "Strängnäs",
    "name": "",
    "lat": 59.374422,
    "lng": 17.007619,
    "adress": " ",
    "postnr": "",
    "ort": "Strängnäs",
    "typ": "industrilokal",
    "hemsida": "",
    "telefon": "",
    "osm_tags": {
      "building": "industrial",
      "source": "Bing AND Knowledge"
    },
    "org_nr": "",
    "omsattning_kr": 0,
    "bransch": ""
  },
  {
    "source": "openstreetmap",
    "city": "Strängnäs",
    "name": "",
    "lat": 59.377859,
    "lng": 17.00835,
    "adress": " ",
    "postnr": "",
    "ort": "Strängnäs",
    "typ": "industrilokal",
    "hemsida": "",
    "telefon": "",
    "osm_tags": {
      "building": "industrial"
    },
    "org_nr": "",
    "omsattning_kr": 0,
    "bransch": ""
  },
  {
    "source": "openstreetmap",
    "city": "Strängnäs",
    "name": "",
    "lat": 59.373247,
    "lng": 17.027056,
    "adress": " ",
    "postnr": "",
    "ort": "Strängnäs",
    "typ": "industrilokal",
    "hemsida": "",
    "telefon": "",
    "osm_tags": {
      "building": "industrial"
    },
    "org_nr": "",
    "omsattning_kr": 0,
    "bransch": ""
  },
  {
    "source": "openstreetmap",
    "city": "Strängnäs",
    "name": "",
    "lat": 59.374058,
    "lng": 17.004248,
    "adress": " ",
    "postnr": "",
    "ort": "Strängnäs",
    "typ": "industrilokal",
    "hemsida": "",
    "telefon": "",
    "osm_tags": {
      "building": "industrial"
    },
    "org_nr": "",
    "omsattning_kr": 0,
    "bransch": ""
  },
  {
    "source": "openstreetmap",
    "city": "Strängnäs",
    "name": "Sandåsa Träförädling",
    "lat": 59.347435,
    "lng": 17.122943,
    "adress": " ",
    "postnr": "",
    "ort": "Strängnäs",
    "typ": "industri",
    "hemsida": "https://www.sandasa.se",
    "telefon": "",
    "osm_tags": {
      "industrial": "sawmill",
      "landuse": "industrial",
      "name": "Sandåsa Träförädling",
      "operator": "Sandåsa Timber AB",
      "website": "https://www.sandasa.se"
    },
    "org_nr": "",
    "omsattning_kr": 0,
    "bransch": ""
  },
  {
    "source": "openstreetmap",
    "city": "Strängnäs",
    "name": "Malmby Bilskrot",
    "lat": 59.32262,
    "lng": 17.076144,
    "adress": " ",
    "postnr": "",
    "ort": "Strängnäs",
    "typ": "industri",
    "hemsida": "",
    "telefon": "",
    "osm_tags": {
      "barrier": "wall",
      "industrial": "auto_wrecker",
      "landuse": "industrial",
      "name": "Malmby Bilskrot"
    },
    "org_nr": "",
    "omsattning_kr": 0,
    "bransch": ""
  },
  {
    "source": "openstreetmap",
    "city": "Strängnäs",
    "name": "Sundby gamla vattentorn",
    "lat": 59.384214,
    "lng": 17.049236,
    "adress": " ",
    "postnr": "",
    "ort": "Strängnäs",
    "typ": "industrilokal",
    "hemsida": "",
    "telefon": "",
    "osm_tags": {
      "building": "industrial",
      "name": "Sundby gamla vattentorn"
    },
    "org_nr": "",
    "omsattning_kr": 0,
    "bransch": ""
  },
  {
    "source": "openstreetmap",
    "city": "Strängnäs",
    "name": "",
    "lat": 59.377637,
    "lng": 17.004225,
    "adress": " ",
    "postnr": "",
    "ort": "Strängnäs",
    "typ": "lager",
    "hemsida": "",
    "telefon": "",
    "osm_tags": {
      "building": "warehouse"
    },
    "org_nr": "",
    "omsattning_kr": 0,
    "bransch": ""
  },
  {
    "source": "openstreetmap",
    "city": "Katrineholm",
    "name": "",
    "lat": 58.996288,
    "lng": 16.202951,
    "adress": " ",
    "postnr": "",
    "ort": "Katrineholm",
    "typ": "industrilokal",
    "hemsida": "",
    "telefon": "",
    "osm_tags": {
      "building": "industrial",
      "building:levels": "1"
    },
    "org_nr": "",
    "omsattning_kr": 0,
    "bransch": ""
  },
  {
    "source": "openstreetmap",
    "city": "Katrineholm",
    "name": "Åsporten",
    "lat": 58.982718,
    "lng": 16.231999,
    "adress": " ",
    "postnr": "",
    "ort": "Katrineholm",
    "typ": "industri",
    "hemsida": "",
    "telefon": "",
    "osm_tags": {
      "landuse": "industrial",
      "name": "Åsporten"
    },
    "org_nr": "",
    "omsattning_kr": 0,
    "bransch": ""
  },
  {
    "source": "openstreetmap",
    "city": "Katrineholm",
    "name": "Stibo Complete",
    "lat": 58.995564,
    "lng": 16.180809,
    "adress": " ",
    "postnr": "",
    "ort": "Katrineholm",
    "typ": "industri",
    "hemsida": "",
    "telefon": "",
    "osm_tags": {
      "landuse": "industrial",
      "name": "Stibo Complete"
    },
    "org_nr": "",
    "omsattning_kr": 0,
    "bransch": ""
  },
  {
    "source": "openstreetmap",
    "city": "Katrineholm",
    "name": "AWS eu-north-1 Availability Zone K",
    "lat": 58.996416,
    "lng": 16.235174,
    "adress": " ",
    "postnr": "",
    "ort": "Katrineholm",
    "typ": "industrilokal",
    "hemsida": "",
    "telefon": "",
    "osm_tags": {
      "building": "industrial",
      "description": "AWS Datacenter",
      "name": "AWS eu-north-1 Availability Zone K",
      "operator": "Amazon Web Services",
      "operator:short": "AWS",
      "operator:wikidata": "Q456157",
      "telecom": "data_center"
    },
    "org_nr": "",
    "omsattning_kr": 0,
    "bransch": ""
  },
  {
    "source": "openstreetmap",
    "city": "Katrineholm",
    "name": "Energihuset",
    "lat": 59.010021,
    "lng": 16.204937,
    "adress": " ",
    "postnr": "",
    "ort": "Katrineholm",
    "typ": "industrilokal",
    "hemsida": "",
    "telefon": "",
    "osm_tags": {
      "building": "industrial",
      "building:levels": "0",
      "name": "Energihuset",
      "roof:levels": "2",
      "roof:shape": "gabled"
    },
    "org_nr": "",
    "omsattning_kr": 0,
    "bransch": ""
  },
  {
    "source": "openstreetmap",
    "city": "Katrineholm",
    "name": "",
    "lat": 58.998685,
    "lng": 16.184784,
    "adress": " ",
    "postnr": "",
    "ort": "Katrineholm",
    "typ": "industrilokal",
    "hemsida": "https://www.tekniskaverken.se/om-oss/anlaggningar/kraftvarmeverk/kraftvarmeverket-i-katrineholm/",
    "telefon": "",
    "osm_tags": {
      "building": "industrial"
    },
    "org_nr": "",
    "omsattning_kr": 0,
    "bransch": ""
  },
  {
    "source": "openstreetmap",
    "city": "Hallsberg",
    "name": "Volvo Construction Equipment",
    "lat": 59.071065,
    "lng": 15.103355,
    "adress": " ",
    "postnr": "",
    "ort": "Hallsberg",
    "typ": "industri",
    "hemsida": "",
    "telefon": "",
    "osm_tags": {
      "landuse": "industrial",
      "name": "Volvo Construction Equipment"
    },
    "org_nr": "",
    "omsattning_kr": 0,
    "bransch": ""
  },
  {
    "source": "openstreetmap",
    "city": "Hallsberg",
    "name": "",
    "lat": 59.102128,
    "lng": 15.214651,
    "adress": " ",
    "postnr": "",
    "ort": "Hallsberg",
    "typ": "industrilokal",
    "hemsida": "",
    "telefon": "",
    "osm_tags": {
      "building": "industrial"
    },
    "org_nr": "",
    "omsattning_kr": 0,
    "bransch": ""
  },
  {
    "source": "openstreetmap",
    "city": "Hallsberg",
    "name": "",
    "lat": 59.101318,
    "lng": 15.212142,
    "adress": " ",
    "postnr": "",
    "ort": "Hallsberg",
    "typ": "industrilokal",
    "hemsida": "",
    "telefon": "",
    "osm_tags": {
      "building": "industrial"
    },
    "org_nr": "",
    "omsattning_kr": 0,
    "bransch": ""
  },
  {
    "source": "openstreetmap",
    "city": "Hallsberg",
    "name": "",
    "lat": 59.064206,
    "lng": 15.084188,
    "adress": " ",
    "postnr": "",
    "ort": "Hallsberg",
    "typ": "industrilokal",
    "hemsida": "",
    "telefon": "",
    "osm_tags": {
      "building": "industrial"
    },
    "org_nr": "",
    "omsattning_kr": 0,
    "bransch": ""
  },
  {
    "source": "openstreetmap",
    "city": "Hallsberg",
    "name": "",
    "lat": 59.068167,
    "lng": 15.100466,
    "adress": " ",
    "postnr": "",
    "ort": "Hallsberg",
    "typ": "industrilokal",
    "hemsida": "",
    "telefon": "",
    "osm_tags": {
      "building": "industrial"
    },
    "org_nr": "",
    "omsattning_kr": 0,
    "bransch": ""
  },
  {
    "source": "openstreetmap",
    "city": "Örebro",
    "name": "Elon Elkedjan Logistic",
    "lat": 59.212488,
    "lng": 15.163103,
    "adress": "Bäcklundavägen 1",
    "postnr": "702 36",
    "ort": "Örebro",
    "typ": "lager",
    "hemsida": "",
    "telefon": "",
    "osm_tags": {
      "addr:city": "Örebro",
      "addr:country": "SE",
      "addr:housenumber": "1",
      "addr:postcode": "702 36",
      "addr:street": "Bäcklundavägen",
      "building": "warehouse",
      "name": "Elon Elkedjan Logistic",
      "office": "company",
      "source": "Bing"
    },
    "org_nr": "",
    "omsattning_kr": 0,
    "bransch": ""
  },
  {
    "source": "openstreetmap",
    "city": "Örebro",
    "name": "DHL",
    "lat": 59.212249,
    "lng": 15.157063,
    "adress": "Paketvägen 1",
    "postnr": "702 36",
    "ort": "Örebro",
    "typ": "lager",
    "hemsida": "",
    "telefon": "",
    "osm_tags": {
      "addr:city": "Örebro",
      "addr:country": "SE",
      "addr:housenumber": "1",
      "addr:postcode": "702 36",
      "addr:street": "Paketvägen",
      "brand": "DHL",
      "brand:wikidata": "Q489815",
      "building": "warehouse",
      "name": "DHL",
      "office": "logistics",
      "source": "Bing"
    },
    "org_nr": "",
    "omsattning_kr": 0,
    "bransch": ""
  },
  {
    "source": "openstreetmap",
    "city": "Örebro",
    "name": "Motorvagnsverkstaden",
    "lat": 59.276825,
    "lng": 15.238059,
    "adress": " ",
    "postnr": "",
    "ort": "Örebro",
    "typ": "industrilokal",
    "hemsida": "",
    "telefon": "",
    "osm_tags": {
      "building": "industrial",
      "building:levels": "2",
      "name": "Motorvagnsverkstaden",
      "roof:levels": "0"
    },
    "org_nr": "",
    "omsattning_kr": 0,
    "bransch": ""
  },
  {
    "source": "openstreetmap",
    "city": "Örebro",
    "name": "",
    "lat": 59.27732,
    "lng": 15.231759,
    "adress": " ",
    "postnr": "",
    "ort": "Örebro",
    "typ": "industrilokal",
    "hemsida": "",
    "telefon": "",
    "osm_tags": {
      "building": "industrial",
      "building:levels": "1",
      "layer": "1",
      "roof:levels": "1"
    },
    "org_nr": "",
    "omsattning_kr": 0,
    "bransch": ""
  },
  {
    "source": "openstreetmap",
    "city": "Örebro",
    "name": "Servicehallarna",
    "lat": 59.277828,
    "lng": 15.228204,
    "adress": " ",
    "postnr": "",
    "ort": "Örebro",
    "typ": "industrilokal",
    "hemsida": "",
    "telefon": "",
    "osm_tags": {
      "building": "industrial",
      "name": "Servicehallarna"
    },
    "org_nr": "",
    "omsattning_kr": 0,
    "bransch": ""
  },
  {
    "source": "openstreetmap",
    "city": "Örebro",
    "name": "Ång- och kraftcentralen",
    "lat": 59.277425,
    "lng": 15.235216,
    "adress": " ",
    "postnr": "",
    "ort": "Örebro",
    "typ": "industrilokal",
    "hemsida": "",
    "telefon": "",
    "osm_tags": {
      "building": "industrial",
      "building:levels": "1",
      "name": "Ång- och kraftcentralen",
      "roof:levels": "1"
    },
    "org_nr": "",
    "omsattning_kr": 0,
    "bransch": ""
  },
  {
    "source": "openstreetmap",
    "city": "Örebro",
    "name": "Mondi",
    "lat": 59.267005,
    "lng": 15.245309,
    "adress": " ",
    "postnr": "",
    "ort": "Örebro",
    "typ": "industrilokal",
    "hemsida": "",
    "telefon": "",
    "osm_tags": {
      "building": "industrial",
      "man_made": "works",
      "name": "Mondi"
    },
    "org_nr": "",
    "omsattning_kr": 0,
    "bransch": ""
  },
  {
    "source": "openstreetmap",
    "city": "Örebro",
    "name": "Kullens Kvarn",
    "lat": 59.317681,
    "lng": 15.408224,
    "adress": " ",
    "postnr": "",
    "ort": "Örebro",
    "typ": "industrilokal",
    "hemsida": "",
    "telefon": "",
    "osm_tags": {
      "building": "industrial",
      "name": "Kullens Kvarn"
    },
    "org_nr": "",
    "omsattning_kr": 0,
    "bransch": ""
  },
  {
    "source": "openstreetmap",
    "city": "Örebro",
    "name": "",
    "lat": 59.314102,
    "lng": 15.408508,
    "adress": " ",
    "postnr": "",
    "ort": "Örebro",
    "typ": "industrilokal",
    "hemsida": "",
    "telefon": "",
    "osm_tags": {
      "building": "industrial"
    },
    "org_nr": "",
    "omsattning_kr": 0,
    "bransch": ""
  },
  {
    "source": "openstreetmap",
    "city": "Örebro",
    "name": "",
    "lat": 59.255812,
    "lng": 15.155843,
    "adress": " ",
    "postnr": "",
    "ort": "Örebro",
    "typ": "industrilokal",
    "hemsida": "",
    "telefon": "",
    "osm_tags": {
      "building": "industrial"
    },
    "org_nr": "",
    "omsattning_kr": 0,
    "bransch": ""
  },
  {
    "source": "openstreetmap",
    "city": "Örebro",
    "name": "Örnen",
    "lat": 59.270267,
    "lng": 15.198742,
    "adress": " ",
    "postnr": "",
    "ort": "Örebro",
    "typ": "industri",
    "hemsida": "",
    "telefon": "",
    "osm_tags": {
      "landuse": "industrial",
      "name": "Örnen"
    },
    "org_nr": "",
    "omsattning_kr": 0,
    "bransch": ""
  },
  {
    "source": "openstreetmap",
    "city": "Örebro",
    "name": "",
    "lat": 59.287926,
    "lng": 15.220499,
    "adress": " ",
    "postnr": "",
    "ort": "Örebro",
    "typ": "industrilokal",
    "hemsida": "",
    "telefon": "",
    "osm_tags": {
      "building": "industrial"
    },
    "org_nr": "",
    "omsattning_kr": 0,
    "bransch": ""
  },
  {
    "source": "openstreetmap",
    "city": "Örebro",
    "name": "",
    "lat": 59.262896,
    "lng": 15.181961,
    "adress": " ",
    "postnr": "",
    "ort": "Örebro",
    "typ": "industrilokal",
    "hemsida": "",
    "telefon": "",
    "osm_tags": {
      "building": "industrial"
    },
    "org_nr": "",
    "omsattning_kr": 0,
    "bransch": ""
  },
  {
    "source": "openstreetmap",
    "city": "Örebro",
    "name": "",
    "lat": 59.253869,
    "lng": 15.166677,
    "adress": "Nastagatan 19",
    "postnr": "",
    "ort": "Örebro",
    "typ": "lager",
    "hemsida": "",
    "telefon": "",
    "osm_tags": {
      "addr:city": "Örebro",
      "addr:country": "SE",
      "addr:housenumber": "19",
      "addr:street": "Nastagatan",
      "building": "warehouse"
    },
    "org_nr": "",
    "omsattning_kr": 0,
    "bransch": ""
  },
  {
    "source": "openstreetmap",
    "city": "Örebro",
    "name": "DB Schenker",
    "lat": 59.245479,
    "lng": 15.143342,
    "adress": "Krangatan 4",
    "postnr": "70113",
    "ort": "Örebro",
    "typ": "lager",
    "hemsida": "",
    "telefon": "",
    "osm_tags": {
      "addr:city": "Örebro",
      "addr:country": "SE",
      "addr:housenumber": "4",
      "addr:postcode": "70113",
      "addr:street": "Krangatan",
      "building": "warehouse",
      "name": "DB Schenker"
    },
    "org_nr": "",
    "omsattning_kr": 0,
    "bransch": ""
  },
  {
    "source": "openstreetmap",
    "city": "Örebro",
    "name": "",
    "lat": 59.288615,
    "lng": 15.20513,
    "adress": " ",
    "postnr": "",
    "ort": "Örebro",
    "typ": "industrilokal",
    "hemsida": "",
    "telefon": "",
    "osm_tags": {
      "building": "industrial"
    },
    "org_nr": "",
    "omsattning_kr": 0,
    "bransch": ""
  },
  {
    "source": "openstreetmap",
    "city": "Örebro",
    "name": "",
    "lat": 59.277894,
    "lng": 15.213822,
    "adress": " ",
    "postnr": "",
    "ort": "Örebro",
    "typ": "industrilokal",
    "hemsida": "",
    "telefon": "",
    "osm_tags": {
      "building": "industrial",
      "building:levels": "4",
      "roof:levels": "1",
      "roof:shape": "gambrel"
    },
    "org_nr": "",
    "omsattning_kr": 0,
    "bransch": ""
  },
  {
    "source": "openstreetmap",
    "city": "Örebro",
    "name": "E.ON Åbyverket",
    "lat": 59.264918,
    "lng": 15.177235,
    "adress": " ",
    "postnr": "",
    "ort": "Örebro",
    "typ": "industri",
    "hemsida": "",
    "telefon": "",
    "osm_tags": {
      "landuse": "industrial",
      "name": "E.ON Åbyverket",
      "operator": "E.ON",
      "operator:wikidata": "Q270223",
      "plant:method": "combustion",
      "plant:output:electricity": "150 MW",
      "plant:source": "biomass;oil",
      "power": "plant",
      "start_date": "1960"
    },
    "org_nr": "",
    "omsattning_kr": 0,
    "bransch": ""
  },
  {
    "source": "openstreetmap",
    "city": "Örebro",
    "name": "",
    "lat": 59.276846,
    "lng": 15.180965,
    "adress": "Tengvallsgatan 39",
    "postnr": "703 47",
    "ort": "Örebro",
    "typ": "lager",
    "hemsida": "",
    "telefon": "",
    "osm_tags": {
      "addr:city": "Örebro",
      "addr:country": "SE",
      "addr:housenumber": "39",
      "addr:postcode": "703 47",
      "addr:street": "Tengvallsgatan",
      "building": "warehouse"
    },
    "org_nr": "",
    "omsattning_kr": 0,
    "bransch": ""
  },
  {
    "source": "openstreetmap",
    "city": "Örebro",
    "name": "EMBA Machinery AB",
    "lat": 59.303835,
    "lng": 15.232041,
    "adress": "Bettorpsgatan 18",
    "postnr": "700 02",
    "ort": "Örebro",
    "typ": "industrilokal",
    "hemsida": "",
    "telefon": "",
    "osm_tags": {
      "addr:city": "Örebro",
      "addr:country": "SE",
      "addr:housenumber": "18",
      "addr:postcode": "700 02",
      "addr:street": "Bettorpsgatan",
      "building": "industrial",
      "name": "EMBA Machinery AB"
    },
    "org_nr": "",
    "omsattning_kr": 0,
    "bransch": ""
  },
  {
    "source": "openstreetmap",
    "city": "Örebro",
    "name": "",
    "lat": 59.261961,
    "lng": 15.208259,
    "adress": " ",
    "postnr": "",
    "ort": "Örebro",
    "typ": "industrilokal",
    "hemsida": "",
    "telefon": "",
    "osm_tags": {
      "building": "industrial"
    },
    "org_nr": "",
    "omsattning_kr": 0,
    "bransch": ""
  },
  {
    "source": "openstreetmap",
    "city": "Örebro",
    "name": "",
    "lat": 59.230351,
    "lng": 15.254526,
    "adress": " ",
    "postnr": "",
    "ort": "Örebro",
    "typ": "industrilokal",
    "hemsida": "",
    "telefon": "",
    "osm_tags": {
      "building": "industrial"
    },
    "org_nr": "",
    "omsattning_kr": 0,
    "bransch": ""
  },
  {
    "source": "openstreetmap",
    "city": "Örebro",
    "name": "",
    "lat": 59.231051,
    "lng": 15.256925,
    "adress": " ",
    "postnr": "",
    "ort": "Örebro",
    "typ": "industrilokal",
    "hemsida": "",
    "telefon": "",
    "osm_tags": {
      "building": "industrial"
    },
    "org_nr": "",
    "omsattning_kr": 0,
    "bransch": ""
  },
  {
    "source": "openstreetmap",
    "city": "Örebro",
    "name": "Atleverket",
    "lat": 59.216682,
    "lng": 15.215607,
    "adress": " ",
    "postnr": "",
    "ort": "Örebro",
    "typ": "industri",
    "hemsida": "",
    "telefon": "",
    "osm_tags": {
      "landuse": "industrial",
      "name": "Atleverket"
    },
    "org_nr": "",
    "omsattning_kr": 0,
    "bransch": ""
  },
  {
    "source": "openstreetmap",
    "city": "Örebro",
    "name": "Atle Bergtäkt",
    "lat": 59.230438,
    "lng": 15.221198,
    "adress": " ",
    "postnr": "",
    "ort": "Örebro",
    "typ": "industri",
    "hemsida": "",
    "telefon": "",
    "osm_tags": {
      "landuse": "industrial",
      "name": "Atle Bergtäkt"
    },
    "org_nr": "",
    "omsattning_kr": 0,
    "bransch": ""
  },
  {
    "source": "openstreetmap",
    "city": "Örebro",
    "name": "",
    "lat": 59.228836,
    "lng": 15.253761,
    "adress": " ",
    "postnr": "",
    "ort": "Örebro",
    "typ": "industrilokal",
    "hemsida": "",
    "telefon": "",
    "osm_tags": {
      "building": "industrial"
    },
    "org_nr": "",
    "omsattning_kr": 0,
    "bransch": ""
  },
  {
    "source": "openstreetmap",
    "city": "Örebro",
    "name": "",
    "lat": 59.22755,
    "lng": 15.254596,
    "adress": " ",
    "postnr": "",
    "ort": "Örebro",
    "typ": "industrilokal",
    "hemsida": "",
    "telefon": "",
    "osm_tags": {
      "building": "industrial"
    },
    "org_nr": "",
    "omsattning_kr": 0,
    "bransch": ""
  },
  {
    "source": "openstreetmap",
    "city": "Örebro",
    "name": "",
    "lat": 59.225711,
    "lng": 15.253928,
    "adress": " ",
    "postnr": "",
    "ort": "Örebro",
    "typ": "industrilokal",
    "hemsida": "",
    "telefon": "",
    "osm_tags": {
      "building": "industrial"
    },
    "org_nr": "",
    "omsattning_kr": 0,
    "bransch": ""
  },
  {
    "source": "openstreetmap",
    "city": "Örebro",
    "name": "",
    "lat": 59.223115,
    "lng": 15.253522,
    "adress": " ",
    "postnr": "",
    "ort": "Örebro",
    "typ": "industrilokal",
    "hemsida": "",
    "telefon": "",
    "osm_tags": {
      "building": "industrial"
    },
    "org_nr": "",
    "omsattning_kr": 0,
    "bransch": ""
  },
  {
    "source": "openstreetmap",
    "city": "Örebro",
    "name": "",
    "lat": 59.266697,
    "lng": 15.100646,
    "adress": " ",
    "postnr": "",
    "ort": "Örebro",
    "typ": "industrilokal",
    "hemsida": "",
    "telefon": "",
    "osm_tags": {
      "building": "industrial",
      "gas_insulated": "yes",
      "location": "indoor",
      "power": "switchgear",
      "voltage": "400000"
    },
    "org_nr": "",
    "omsattning_kr": 0,
    "bransch": ""
  },
  {
    "source": "openstreetmap",
    "city": "Örebro",
    "name": "",
    "lat": 59.273725,
    "lng": 15.259192,
    "adress": " ",
    "postnr": "",
    "ort": "Örebro",
    "typ": "industrilokal",
    "hemsida": "",
    "telefon": "",
    "osm_tags": {
      "building": "industrial"
    },
    "org_nr": "",
    "omsattning_kr": 0,
    "bransch": ""
  },
  {
    "source": "openstreetmap",
    "city": "Örebro",
    "name": "Epiroc",
    "lat": 59.260437,
    "lng": 15.201629,
    "adress": " ",
    "postnr": "",
    "ort": "Örebro",
    "typ": "industri",
    "hemsida": "",
    "telefon": "",
    "osm_tags": {
      "barrier": "fence",
      "landuse": "industrial",
      "name": "Epiroc"
    },
    "org_nr": "",
    "omsattning_kr": 0,
    "bransch": ""
  },
  {
    "source": "openstreetmap",
    "city": "Örebro",
    "name": "Länstrafiken",
    "lat": 59.278064,
    "lng": 15.224574,
    "adress": " ",
    "postnr": "",
    "ort": "Örebro",
    "typ": "industri",
    "hemsida": "",
    "telefon": "",
    "osm_tags": {
      "landuse": "industrial",
      "name": "Länstrafiken"
    },
    "org_nr": "",
    "omsattning_kr": 0,
    "bransch": ""
  },
  {
    "source": "openstreetmap",
    "city": "Örebro",
    "name": "Johnsson metall",
    "lat": 59.287198,
    "lng": 15.212575,
    "adress": " ",
    "postnr": "",
    "ort": "Örebro",
    "typ": "industri",
    "hemsida": "",
    "telefon": "",
    "osm_tags": {
      "landuse": "industrial",
      "name": "Johnsson metall"
    },
    "org_nr": "",
    "omsattning_kr": 0,
    "bransch": ""
  },
  {
    "source": "openstreetmap",
    "city": "Örebro",
    "name": "",
    "lat": 59.271719,
    "lng": 15.248823,
    "adress": " ",
    "postnr": "",
    "ort": "Örebro",
    "typ": "industrilokal",
    "hemsida": "",
    "telefon": "",
    "osm_tags": {
      "building": "industrial"
    },
    "org_nr": "",
    "omsattning_kr": 0,
    "bransch": ""
  },
  {
    "source": "openstreetmap",
    "city": "Örebro",
    "name": "",
    "lat": 59.262624,
    "lng": 15.271178,
    "adress": " ",
    "postnr": "",
    "ort": "Örebro",
    "typ": "industrilokal",
    "hemsida": "",
    "telefon": "",
    "osm_tags": {
      "building": "industrial"
    },
    "org_nr": "",
    "omsattning_kr": 0,
    "bransch": ""
  },
  {
    "source": "openstreetmap",
    "city": "Örebro",
    "name": "Närke slakteri",
    "lat": 59.194812,
    "lng": 15.224714,
    "adress": " ",
    "postnr": "",
    "ort": "Örebro",
    "typ": "industri",
    "hemsida": "",
    "telefon": "",
    "osm_tags": {
      "landuse": "industrial",
      "name": "Närke slakteri",
      "shop": "butcher"
    },
    "org_nr": "",
    "omsattning_kr": 0,
    "bransch": ""
  },
  {
    "source": "openstreetmap",
    "city": "Örebro",
    "name": "DHL",
    "lat": 59.212989,
    "lng": 15.15253,
    "adress": "Paketvägen 10",
    "postnr": "702 36",
    "ort": "Örebro",
    "typ": "lager",
    "hemsida": "",
    "telefon": "",
    "osm_tags": {
      "addr:city": "Örebro",
      "addr:country": "SE",
      "addr:housenumber": "10",
      "addr:postcode": "702 36",
      "addr:street": "Paketvägen",
      "branch": "DHL Freight AB",
      "brand": "DHL",
      "brand:wikidata": "Q489815",
      "building": "warehouse",
      "name": "DHL",
      "office": "logistics"
    },
    "org_nr": "",
    "omsattning_kr": 0,
    "bransch": ""
  },
  {
    "source": "openstreetmap",
    "city": "Örebro",
    "name": "",
    "lat": 59.266082,
    "lng": 15.110563,
    "adress": " ",
    "postnr": "",
    "ort": "Örebro",
    "typ": "industrilokal",
    "hemsida": "",
    "telefon": "",
    "osm_tags": {
      "building": "industrial"
    },
    "org_nr": "",
    "omsattning_kr": 0,
    "bransch": ""
  },
  {
    "source": "openstreetmap",
    "city": "Örebro",
    "name": "",
    "lat": 59.290456,
    "lng": 15.225391,
    "adress": " ",
    "postnr": "",
    "ort": "Örebro",
    "typ": "industrilokal",
    "hemsida": "",
    "telefon": "",
    "osm_tags": {
      "building": "industrial"
    },
    "org_nr": "",
    "omsattning_kr": 0,
    "bransch": ""
  },
  {
    "source": "openstreetmap",
    "city": "Örebro",
    "name": "Axima DTS AB",
    "lat": 59.176879,
    "lng": 15.261369,
    "adress": " ",
    "postnr": "",
    "ort": "Örebro",
    "typ": "industrilokal",
    "hemsida": "https://www.axima.se/",
    "telefon": "",
    "osm_tags": {
      "building": "industrial",
      "name": "Axima DTS AB",
      "website": "https://www.axima.se/"
    },
    "org_nr": "",
    "omsattning_kr": 0,
    "bransch": ""
  },
  {
    "source": "openstreetmap",
    "city": "Örebro",
    "name": "",
    "lat": 59.256633,
    "lng": 15.180667,
    "adress": " ",
    "postnr": "",
    "ort": "Örebro",
    "typ": "lager",
    "hemsida": "",
    "telefon": "",
    "osm_tags": {
      "building": "warehouse"
    },
    "org_nr": "",
    "omsattning_kr": 0,
    "bransch": ""
  },
  {
    "source": "openstreetmap",
    "city": "Örebro",
    "name": "Elektroskandia",
    "lat": 59.304349,
    "lng": 15.26553,
    "adress": "Lindvallsgatan 1",
    "postnr": "70381",
    "ort": "Örebro",
    "typ": "lager",
    "hemsida": "",
    "telefon": "",
    "osm_tags": {
      "addr:city": "Örebro",
      "addr:country": "SE",
      "addr:housenumber": "1",
      "addr:postcode": "70381",
      "addr:street": "Lindvallsgatan",
      "building": "warehouse",
      "height": "10",
      "name": "Elektroskandia"
    },
    "org_nr": "",
    "omsattning_kr": 0,
    "bransch": ""
  },
  {
    "source": "openstreetmap",
    "city": "Örebro",
    "name": "Nasta Industriområde",
    "lat": 59.255515,
    "lng": 15.165396,
    "adress": " ",
    "postnr": "",
    "ort": "Örebro",
    "typ": "industri",
    "hemsida": "",
    "telefon": "",
    "osm_tags": {
      "landuse": "industrial",
      "name": "Nasta Industriområde"
    },
    "org_nr": "",
    "omsattning_kr": 0,
    "bransch": ""
  },
  {
    "source": "openstreetmap",
    "city": "Örebro",
    "name": "Lidl Centrallager örebro",
    "lat": 59.2472,
    "lng": 15.103008,
    "adress": "Vältgatan 1",
    "postnr": "702 36",
    "ort": "Örebro",
    "typ": "industrilokal",
    "hemsida": "",
    "telefon": "",
    "osm_tags": {
      "addr:city": "Örebro",
      "addr:country": "SE",
      "addr:housenumber": "1",
      "addr:postcode": "702 36",
      "addr:street": "Vältgatan",
      "building": "industrial",
      "name": "Lidl Centrallager örebro"
    },
    "org_nr": "",
    "omsattning_kr": 0,
    "bransch": ""
  },
  {
    "source": "openstreetmap",
    "city": "Örebro",
    "name": "",
    "lat": 59.326288,
    "lng": 15.233794,
    "adress": " ",
    "postnr": "",
    "ort": "Örebro",
    "typ": "industrilokal",
    "hemsida": "",
    "telefon": "",
    "osm_tags": {
      "building": "industrial"
    },
    "org_nr": "",
    "omsattning_kr": 0,
    "bransch": ""
  },
  {
    "source": "openstreetmap",
    "city": "Örebro",
    "name": "",
    "lat": 59.287305,
    "lng": 15.217874,
    "adress": "Törngatan 4",
    "postnr": "70383",
    "ort": "Örebro",
    "typ": "industrilokal",
    "hemsida": "",
    "telefon": "",
    "osm_tags": {
      "addr:city": "Örebro",
      "addr:country": "SE",
      "addr:housenumber": "4",
      "addr:postcode": "70383",
      "addr:street": "Törngatan",
      "building": "industrial"
    },
    "org_nr": "",
    "omsattning_kr": 0,
    "bransch": ""
  },
  {
    "source": "openstreetmap",
    "city": "Örebro",
    "name": "Egeryd företagshotell",
    "lat": 59.265358,
    "lng": 15.192247,
    "adress": " ",
    "postnr": "",
    "ort": "Örebro",
    "typ": "industrilokal",
    "hemsida": "",
    "telefon": "",
    "osm_tags": {
      "building": "industrial",
      "name": "Egeryd företagshotell"
    },
    "org_nr": "",
    "omsattning_kr": 0,
    "bransch": ""
  },
  {
    "source": "openstreetmap",
    "city": "Örebro",
    "name": "",
    "lat": 59.238229,
    "lng": 15.128164,
    "adress": " ",
    "postnr": "",
    "ort": "Örebro",
    "typ": "lager",
    "hemsida": "",
    "telefon": "",
    "osm_tags": {
      "building": "warehouse"
    },
    "org_nr": "",
    "omsattning_kr": 0,
    "bransch": ""
  },
  {
    "source": "openstreetmap",
    "city": "Örebro",
    "name": "",
    "lat": 59.337076,
    "lng": 15.069103,
    "adress": " ",
    "postnr": "",
    "ort": "Örebro",
    "typ": "lager",
    "hemsida": "",
    "telefon": "",
    "osm_tags": {
      "building": "warehouse"
    },
    "org_nr": "",
    "omsattning_kr": 0,
    "bransch": ""
  },
  {
    "source": "openstreetmap",
    "city": "Örebro",
    "name": "Dollar Store",
    "lat": 59.209737,
    "lng": 15.149788,
    "adress": "Paketvägen 2",
    "postnr": "",
    "ort": "Örebro",
    "typ": "lager",
    "hemsida": "",
    "telefon": "",
    "osm_tags": {
      "addr:city": "Örebro",
      "addr:housenumber": "2",
      "addr:street": "Paketvägen",
      "building": "warehouse",
      "name": "Dollar Store"
    },
    "org_nr": "",
    "omsattning_kr": 0,
    "bransch": ""
  },
  {
    "source": "openstreetmap",
    "city": "Södertälje",
    "name": "Igelstaverket",
    "lat": 59.176899,
    "lng": 17.666481,
    "adress": " ",
    "postnr": "",
    "ort": "Södertälje",
    "typ": "industri",
    "hemsida": "",
    "telefon": "",
    "osm_tags": {
      "landuse": "industrial",
      "name": "Igelstaverket",
      "operator": "Söderenergi",
      "plant:method": "combustion",
      "plant:output:hot_water": "yes",
      "plant:output:steam": "yes",
      "plant:source": "biomass",
      "power": "plant",
      "wikidata": "Q125857985"
    },
    "org_nr": "",
    "omsattning_kr": 0,
    "bransch": ""
  },
  {
    "source": "openstreetmap",
    "city": "Södertälje",
    "name": "",
    "lat": 59.162827,
    "lng": 17.651312,
    "adress": " ",
    "postnr": "",
    "ort": "Södertälje",
    "typ": "lager",
    "hemsida": "",
    "telefon": "",
    "osm_tags": {
      "building": "warehouse"
    },
    "org_nr": "",
    "omsattning_kr": 0,
    "bransch": ""
  },
  {
    "source": "openstreetmap",
    "city": "Södertälje",
    "name": "Almnäs",
    "lat": 59.170878,
    "lng": 17.530213,
    "adress": " ",
    "postnr": "",
    "ort": "Södertälje",
    "typ": "industri",
    "hemsida": "",
    "telefon": "",
    "osm_tags": {
      "landuse": "industrial",
      "name": "Almnäs"
    },
    "org_nr": "",
    "omsattning_kr": 0,
    "bransch": ""
  },
  {
    "source": "openstreetmap",
    "city": "Södertälje",
    "name": "AVL",
    "lat": 59.17551,
    "lng": 17.618926,
    "adress": " ",
    "postnr": "",
    "ort": "Södertälje",
    "typ": "industrilokal",
    "hemsida": "",
    "telefon": "",
    "osm_tags": {
      "building": "industrial",
      "building:colour": "lightgray",
      "man_made": "works",
      "name": "AVL",
      "roof:colour": "gray"
    },
    "org_nr": "",
    "omsattning_kr": 0,
    "bransch": ""
  },
  {
    "source": "openstreetmap",
    "city": "Södertälje",
    "name": "",
    "lat": 59.173059,
    "lng": 17.6249,
    "adress": " ",
    "postnr": "",
    "ort": "Södertälje",
    "typ": "industrilokal",
    "hemsida": "",
    "telefon": "",
    "osm_tags": {
      "building": "industrial",
      "height": "18 m",
      "man_made": "works",
      "ref": "B150"
    },
    "org_nr": "",
    "omsattning_kr": 0,
    "bransch": ""
  },
  {
    "source": "openstreetmap",
    "city": "Södertälje",
    "name": "Scania",
    "lat": 59.164562,
    "lng": 17.644431,
    "adress": " ",
    "postnr": "",
    "ort": "Södertälje",
    "typ": "industri",
    "hemsida": "",
    "telefon": "",
    "osm_tags": {
      "landuse": "industrial",
      "name": "Scania"
    },
    "org_nr": "",
    "omsattning_kr": 0,
    "bransch": ""
  },
  {
    "source": "openstreetmap",
    "city": "Södertälje",
    "name": "Scania",
    "lat": 59.159194,
    "lng": 17.644398,
    "adress": " ",
    "postnr": "",
    "ort": "Södertälje",
    "typ": "industri",
    "hemsida": "",
    "telefon": "",
    "osm_tags": {
      "landuse": "industrial",
      "name": "Scania"
    },
    "org_nr": "",
    "omsattning_kr": 0,
    "bransch": ""
  },
  {
    "source": "openstreetmap",
    "city": "Södertälje",
    "name": "Hovsjö industriområde",
    "lat": 59.181224,
    "lng": 17.587175,
    "adress": " ",
    "postnr": "",
    "ort": "Södertälje",
    "typ": "industri",
    "hemsida": "",
    "telefon": "",
    "osm_tags": {
      "landuse": "industrial",
      "name": "Hovsjö industriområde"
    },
    "org_nr": "",
    "omsattning_kr": 0,
    "bransch": ""
  },
  {
    "source": "openstreetmap",
    "city": "Södertälje",
    "name": "",
    "lat": 59.173569,
    "lng": 17.637466,
    "adress": " ",
    "postnr": "",
    "ort": "Södertälje",
    "typ": "industrilokal",
    "hemsida": "",
    "telefon": "",
    "osm_tags": {
      "building": "industrial",
      "man_made": "works",
      "source": "Bing"
    },
    "org_nr": "",
    "omsattning_kr": 0,
    "bransch": ""
  },
  {
    "source": "openstreetmap",
    "city": "Södertälje",
    "name": "",
    "lat": 59.17598,
    "lng": 17.639929,
    "adress": " ",
    "postnr": "",
    "ort": "Södertälje",
    "typ": "industrilokal",
    "hemsida": "",
    "telefon": "",
    "osm_tags": {
      "building": "industrial",
      "building:colour": "gray",
      "building:material": "metal",
      "man_made": "works",
      "source": "Bing"
    },
    "org_nr": "",
    "omsattning_kr": 0,
    "bransch": ""
  },
  {
    "source": "openstreetmap",
    "city": "Södertälje",
    "name": "",
    "lat": 59.167596,
    "lng": 17.644591,
    "adress": " ",
    "postnr": "",
    "ort": "Södertälje",
    "typ": "industrilokal",
    "hemsida": "",
    "telefon": "",
    "osm_tags": {
      "building": "industrial",
      "building:colour": "gray",
      "man_made": "works",
      "roof:colour": "gray",
      "roof:shape": "flat",
      "source": "Bing"
    },
    "org_nr": "",
    "omsattning_kr": 0,
    "bransch": ""
  },
  {
    "source": "openstreetmap",
    "city": "Södertälje",
    "name": "",
    "lat": 59.16952,
    "lng": 17.641332,
    "adress": " ",
    "postnr": "",
    "ort": "Södertälje",
    "typ": "industrilokal",
    "hemsida": "",
    "telefon": "",
    "osm_tags": {
      "building": "industrial",
      "man_made": "works",
      "roof:colour": "gray",
      "source": "Bing"
    },
    "org_nr": "",
    "omsattning_kr": 0,
    "bransch": ""
  },
  {
    "source": "openstreetmap",
    "city": "Södertälje",
    "name": "",
    "lat": 59.16743,
    "lng": 17.640794,
    "adress": " ",
    "postnr": "",
    "ort": "Södertälje",
    "typ": "industrilokal",
    "hemsida": "",
    "telefon": "",
    "osm_tags": {
      "building": "industrial",
      "building:colour": "gray",
      "man_made": "works",
      "roof:colour": "gray",
      "source": "Bing"
    },
    "org_nr": "",
    "omsattning_kr": 0,
    "bransch": ""
  },
  {
    "source": "openstreetmap",
    "city": "Södertälje",
    "name": "",
    "lat": 59.172482,
    "lng": 17.639056,
    "adress": " ",
    "postnr": "",
    "ort": "Södertälje",
    "typ": "industrilokal",
    "hemsida": "",
    "telefon": "",
    "osm_tags": {
      "building": "industrial",
      "man_made": "works",
      "roof:colour": "gray",
      "source": "Bing"
    },
    "org_nr": "",
    "omsattning_kr": 0,
    "bransch": ""
  },
  {
    "source": "openstreetmap",
    "city": "Södertälje",
    "name": "",
    "lat": 59.167781,
    "lng": 17.524223,
    "adress": " ",
    "postnr": "",
    "ort": "Södertälje",
    "typ": "industrilokal",
    "hemsida": "",
    "telefon": "",
    "osm_tags": {
      "building": "industrial"
    },
    "org_nr": "",
    "omsattning_kr": 0,
    "bransch": ""
  },
  {
    "source": "openstreetmap",
    "city": "Södertälje",
    "name": "",
    "lat": 59.183201,
    "lng": 17.579664,
    "adress": " ",
    "postnr": "",
    "ort": "Södertälje",
    "typ": "lager",
    "hemsida": "",
    "telefon": "",
    "osm_tags": {
      "building": "warehouse",
      "source": "Bing"
    },
    "org_nr": "",
    "omsattning_kr": 0,
    "bransch": ""
  },
  {
    "source": "openstreetmap",
    "city": "Södertälje",
    "name": "",
    "lat": 59.181532,
    "lng": 17.644762,
    "adress": " ",
    "postnr": "",
    "ort": "Södertälje",
    "typ": "industrilokal",
    "hemsida": "",
    "telefon": "",
    "osm_tags": {
      "building": "industrial"
    },
    "org_nr": "",
    "omsattning_kr": 0,
    "bransch": ""
  },
  {
    "source": "openstreetmap",
    "city": "Södertälje",
    "name": "106",
    "lat": 59.169766,
    "lng": 17.635979,
    "adress": " ",
    "postnr": "",
    "ort": "Södertälje",
    "typ": "industri",
    "hemsida": "",
    "telefon": "",
    "osm_tags": {
      "building": "office",
      "building:colour": "gray",
      "building:levels": "3",
      "building:material": "wood",
      "landuse": "industrial",
      "name": "106",
      "roof:colour": "gray",
      "roof:shape": "flat"
    },
    "org_nr": "",
    "omsattning_kr": 0,
    "bransch": ""
  },
  {
    "source": "openstreetmap",
    "city": "Södertälje",
    "name": "AstraZeneca",
    "lat": 59.203728,
    "lng": 17.614817,
    "adress": " ",
    "postnr": "",
    "ort": "Södertälje",
    "typ": "industri",
    "hemsida": "",
    "telefon": "",
    "osm_tags": {
      "landuse": "industrial",
      "name": "AstraZeneca"
    },
    "org_nr": "",
    "omsattning_kr": 0,
    "bransch": ""
  },
  {
    "source": "openstreetmap",
    "city": "Södertälje",
    "name": "Brandalsunds skola",
    "lat": 59.116489,
    "lng": 17.640888,
    "adress": " ",
    "postnr": "",
    "ort": "Södertälje",
    "typ": "industrilokal",
    "hemsida": "",
    "telefon": "",
    "osm_tags": {
      "building": "industrial",
      "name": "Brandalsunds skola"
    },
    "org_nr": "",
    "omsattning_kr": 0,
    "bransch": ""
  },
  {
    "source": "openstreetmap",
    "city": "Södertälje",
    "name": "",
    "lat": 59.18705,
    "lng": 17.64583,
    "adress": "Viksängsvägen 11",
    "postnr": "15257",
    "ort": "Södertälje",
    "typ": "industrilokal",
    "hemsida": "",
    "telefon": "",
    "osm_tags": {
      "addr:city": "Södertälje",
      "addr:country": "SE",
      "addr:housenumber": "11",
      "addr:postcode": "15257",
      "addr:street": "Viksängsvägen",
      "building": "industrial",
      "building:colour": "white",
      "roof:colour": "gray"
    },
    "org_nr": "",
    "omsattning_kr": 0,
    "bransch": ""
  },
  {
    "source": "openstreetmap",
    "city": "Södertälje",
    "name": "",
    "lat": 59.183023,
    "lng": 17.638507,
    "adress": " ",
    "postnr": "",
    "ort": "Södertälje",
    "typ": "industrilokal",
    "hemsida": "",
    "telefon": "",
    "osm_tags": {
      "building": "industrial",
      "man_made": "works",
      "roof:colour": "gray"
    },
    "org_nr": "",
    "omsattning_kr": 0,
    "bransch": ""
  },
  {
    "source": "openstreetmap",
    "city": "Södertälje",
    "name": "",
    "lat": 59.177442,
    "lng": 17.655365,
    "adress": " ",
    "postnr": "",
    "ort": "Södertälje",
    "typ": "industrilokal",
    "hemsida": "",
    "telefon": "",
    "osm_tags": {
      "building": "industrial",
      "source": "Bing"
    },
    "org_nr": "",
    "omsattning_kr": 0,
    "bransch": ""
  },
  {
    "source": "openstreetmap",
    "city": "Södertälje",
    "name": "",
    "lat": 59.175696,
    "lng": 17.653111,
    "adress": " ",
    "postnr": "",
    "ort": "Södertälje",
    "typ": "industrilokal",
    "hemsida": "",
    "telefon": "",
    "osm_tags": {
      "building": "industrial",
      "source": "Bing"
    },
    "org_nr": "",
    "omsattning_kr": 0,
    "bransch": ""
  },
  {
    "source": "openstreetmap",
    "city": "Södertälje",
    "name": "",
    "lat": 59.181174,
    "lng": 17.652982,
    "adress": " ",
    "postnr": "",
    "ort": "Södertälje",
    "typ": "industrilokal",
    "hemsida": "",
    "telefon": "",
    "osm_tags": {
      "building": "industrial",
      "source": "Bing"
    },
    "org_nr": "",
    "omsattning_kr": 0,
    "bransch": ""
  },
  {
    "source": "openstreetmap",
    "city": "Södertälje",
    "name": "",
    "lat": 59.180002,
    "lng": 17.65443,
    "adress": " ",
    "postnr": "",
    "ort": "Södertälje",
    "typ": "industrilokal",
    "hemsida": "",
    "telefon": "",
    "osm_tags": {
      "building": "industrial",
      "source": "Bing"
    },
    "org_nr": "",
    "omsattning_kr": 0,
    "bransch": ""
  },
  {
    "source": "openstreetmap",
    "city": "Södertälje",
    "name": "",
    "lat": 59.178165,
    "lng": 17.651479,
    "adress": " ",
    "postnr": "",
    "ort": "Södertälje",
    "typ": "industrilokal",
    "hemsida": "",
    "telefon": "",
    "osm_tags": {
      "building": "industrial",
      "source": "Bing"
    },
    "org_nr": "",
    "omsattning_kr": 0,
    "bransch": ""
  },
  {
    "source": "openstreetmap",
    "city": "Södertälje",
    "name": "",
    "lat": 59.175489,
    "lng": 17.657562,
    "adress": " ",
    "postnr": "",
    "ort": "Södertälje",
    "typ": "industrilokal",
    "hemsida": "",
    "telefon": "",
    "osm_tags": {
      "building": "industrial",
      "source": "Bing"
    },
    "org_nr": "",
    "omsattning_kr": 0,
    "bransch": ""
  },
  {
    "source": "openstreetmap",
    "city": "Södertälje",
    "name": "",
    "lat": 59.171904,
    "lng": 17.653908,
    "adress": " ",
    "postnr": "",
    "ort": "Södertälje",
    "typ": "industrilokal",
    "hemsida": "https://www.dackia.se/dackverkstad/dackia-sodertalje-syd/213",
    "telefon": "",
    "osm_tags": {
      "building": "industrial",
      "source": "Bing"
    },
    "org_nr": "",
    "omsattning_kr": 0,
    "bransch": ""
  },
  {
    "source": "openstreetmap",
    "city": "Södertälje",
    "name": "",
    "lat": 59.169447,
    "lng": 17.655402,
    "adress": " ",
    "postnr": "",
    "ort": "Södertälje",
    "typ": "industrilokal",
    "hemsida": "https://telgestalcenter.se/",
    "telefon": "",
    "osm_tags": {
      "building": "industrial"
    },
    "org_nr": "",
    "omsattning_kr": 0,
    "bransch": ""
  },
  {
    "source": "openstreetmap",
    "city": "Södertälje",
    "name": "",
    "lat": 59.173371,
    "lng": 17.654177,
    "adress": " ",
    "postnr": "",
    "ort": "Södertälje",
    "typ": "industrilokal",
    "hemsida": "",
    "telefon": "",
    "osm_tags": {
      "building": "industrial"
    },
    "org_nr": "",
    "omsattning_kr": 0,
    "bransch": ""
  },
  {
    "source": "openstreetmap",
    "city": "Södertälje",
    "name": "",
    "lat": 59.169143,
    "lng": 17.660238,
    "adress": " ",
    "postnr": "",
    "ort": "Södertälje",
    "typ": "industrilokal",
    "hemsida": "",
    "telefon": "",
    "osm_tags": {
      "building": "industrial",
      "source": "Bing"
    },
    "org_nr": "",
    "omsattning_kr": 0,
    "bransch": ""
  },
  {
    "source": "openstreetmap",
    "city": "Södertälje",
    "name": "",
    "lat": 59.166994,
    "lng": 17.660761,
    "adress": " ",
    "postnr": "",
    "ort": "Södertälje",
    "typ": "industrilokal",
    "hemsida": "",
    "telefon": "",
    "osm_tags": {
      "building": "industrial",
      "roof:colour": "gray",
      "source": "Bing"
    },
    "org_nr": "",
    "omsattning_kr": 0,
    "bransch": ""
  },
  {
    "source": "openstreetmap",
    "city": "Södertälje",
    "name": "",
    "lat": 59.16552,
    "lng": 17.659475,
    "adress": " ",
    "postnr": "",
    "ort": "Södertälje",
    "typ": "industrilokal",
    "hemsida": "",
    "telefon": "",
    "osm_tags": {
      "building": "industrial",
      "building:colour": "blue",
      "roof:colour": "gray",
      "source": "Bing"
    },
    "org_nr": "",
    "omsattning_kr": 0,
    "bransch": ""
  },
  {
    "source": "openstreetmap",
    "city": "Södertälje",
    "name": "",
    "lat": 59.168505,
    "lng": 17.663101,
    "adress": " ",
    "postnr": "",
    "ort": "Södertälje",
    "typ": "industrilokal",
    "hemsida": "",
    "telefon": "",
    "osm_tags": {
      "building": "industrial",
      "source": "Bing"
    },
    "org_nr": "",
    "omsattning_kr": 0,
    "bransch": ""
  },
  {
    "source": "openstreetmap",
    "city": "Södertälje",
    "name": "",
    "lat": 59.165453,
    "lng": 17.654869,
    "adress": " ",
    "postnr": "",
    "ort": "Södertälje",
    "typ": "industrilokal",
    "hemsida": "",
    "telefon": "",
    "osm_tags": {
      "building": "industrial",
      "source": "Bing"
    },
    "org_nr": "",
    "omsattning_kr": 0,
    "bransch": ""
  },
  {
    "source": "openstreetmap",
    "city": "Södertälje",
    "name": "",
    "lat": 59.16517,
    "lng": 17.662765,
    "adress": " ",
    "postnr": "",
    "ort": "Södertälje",
    "typ": "industrilokal",
    "hemsida": "",
    "telefon": "",
    "osm_tags": {
      "building": "industrial",
      "source": "Bing"
    },
    "org_nr": "",
    "omsattning_kr": 0,
    "bransch": ""
  },
  {
    "source": "openstreetmap",
    "city": "Södertälje",
    "name": "",
    "lat": 59.167648,
    "lng": 17.657943,
    "adress": " ",
    "postnr": "",
    "ort": "Södertälje",
    "typ": "industrilokal",
    "hemsida": "",
    "telefon": "",
    "osm_tags": {
      "building": "industrial",
      "roof:colour": "gray",
      "source": "Bing"
    },
    "org_nr": "",
    "omsattning_kr": 0,
    "bransch": ""
  },
  {
    "source": "openstreetmap",
    "city": "Södertälje",
    "name": "",
    "lat": 59.165943,
    "lng": 17.645602,
    "adress": " ",
    "postnr": "",
    "ort": "Södertälje",
    "typ": "industrilokal",
    "hemsida": "",
    "telefon": "",
    "osm_tags": {
      "building": "industrial",
      "building:colour": "gray",
      "roof:colour": "lightgray",
      "roof:shape": "gambrel",
      "source": "Bing"
    },
    "org_nr": "",
    "omsattning_kr": 0,
    "bransch": ""
  },
  {
    "source": "openstreetmap",
    "city": "Södertälje",
    "name": "",
    "lat": 59.173737,
    "lng": 17.649839,
    "adress": " ",
    "postnr": "",
    "ort": "Södertälje",
    "typ": "industrilokal",
    "hemsida": "",
    "telefon": "",
    "osm_tags": {
      "building": "industrial",
      "source": "Bing"
    },
    "org_nr": "",
    "omsattning_kr": 0,
    "bransch": ""
  },
  {
    "source": "openstreetmap",
    "city": "Södertälje",
    "name": "",
    "lat": 59.172263,
    "lng": 17.650659,
    "adress": " ",
    "postnr": "",
    "ort": "Södertälje",
    "typ": "industrilokal",
    "hemsida": "",
    "telefon": "",
    "osm_tags": {
      "building": "industrial",
      "source": "Bing"
    },
    "org_nr": "",
    "omsattning_kr": 0,
    "bransch": ""
  },
  {
    "source": "openstreetmap",
    "city": "Södertälje",
    "name": "",
    "lat": 59.169524,
    "lng": 17.65208,
    "adress": " ",
    "postnr": "",
    "ort": "Södertälje",
    "typ": "industrilokal",
    "hemsida": "",
    "telefon": "",
    "osm_tags": {
      "building": "industrial",
      "building:colour": "yellow",
      "roof:colour": "gray",
      "source": "Bing"
    },
    "org_nr": "",
    "omsattning_kr": 0,
    "bransch": ""
  },
  {
    "source": "openstreetmap",
    "city": "Södertälje",
    "name": "",
    "lat": 59.170844,
    "lng": 17.650393,
    "adress": " ",
    "postnr": "",
    "ort": "Södertälje",
    "typ": "industrilokal",
    "hemsida": "",
    "telefon": "",
    "osm_tags": {
      "building": "industrial",
      "source": "Bing"
    },
    "org_nr": "",
    "omsattning_kr": 0,
    "bransch": ""
  },
  {
    "source": "openstreetmap",
    "city": "Södertälje",
    "name": "",
    "lat": 59.202754,
    "lng": 17.661606,
    "adress": " ",
    "postnr": "",
    "ort": "Södertälje",
    "typ": "industrilokal",
    "hemsida": "",
    "telefon": "",
    "osm_tags": {
      "building": "industrial",
      "roof:colour": "red",
      "source": "Bing"
    },
    "org_nr": "",
    "omsattning_kr": 0,
    "bransch": ""
  },
  {
    "source": "openstreetmap",
    "city": "Södertälje",
    "name": "",
    "lat": 59.202887,
    "lng": 17.658711,
    "adress": " ",
    "postnr": "",
    "ort": "Södertälje",
    "typ": "industrilokal",
    "hemsida": "",
    "telefon": "",
    "osm_tags": {
      "building": "industrial"
    },
    "org_nr": "",
    "omsattning_kr": 0,
    "bransch": ""
  },
  {
    "source": "openstreetmap",
    "city": "Södertälje",
    "name": "",
    "lat": 59.203588,
    "lng": 17.665391,
    "adress": " ",
    "postnr": "",
    "ort": "Södertälje",
    "typ": "industrilokal",
    "hemsida": "",
    "telefon": "",
    "osm_tags": {
      "building": "industrial",
      "building:colour": "lightblue",
      "roof:colour": "black",
      "source": "Bing"
    },
    "org_nr": "",
    "omsattning_kr": 0,
    "bransch": ""
  },
  {
    "source": "openstreetmap",
    "city": "Södertälje",
    "name": "",
    "lat": 59.204341,
    "lng": 17.65977,
    "adress": " ",
    "postnr": "",
    "ort": "Södertälje",
    "typ": "industrilokal",
    "hemsida": "",
    "telefon": "",
    "osm_tags": {
      "building": "industrial"
    },
    "org_nr": "",
    "omsattning_kr": 0,
    "bransch": ""
  },
  {
    "source": "openstreetmap",
    "city": "Södertälje",
    "name": "",
    "lat": 59.204573,
    "lng": 17.663225,
    "adress": " ",
    "postnr": "",
    "ort": "Södertälje",
    "typ": "industrilokal",
    "hemsida": "",
    "telefon": "",
    "osm_tags": {
      "building": "industrial",
      "source": "Bing"
    },
    "org_nr": "",
    "omsattning_kr": 0,
    "bransch": ""
  },
  {
    "source": "openstreetmap",
    "city": "Södertälje",
    "name": "",
    "lat": 59.207344,
    "lng": 17.662709,
    "adress": " ",
    "postnr": "",
    "ort": "Södertälje",
    "typ": "industrilokal",
    "hemsida": "",
    "telefon": "",
    "osm_tags": {
      "building": "industrial",
      "building:colour": "gray",
      "roof:colour": "gray",
      "source": "Bing"
    },
    "org_nr": "",
    "omsattning_kr": 0,
    "bransch": ""
  },
  {
    "source": "openstreetmap",
    "city": "Södertälje",
    "name": "",
    "lat": 59.208436,
    "lng": 17.660854,
    "adress": " ",
    "postnr": "",
    "ort": "Södertälje",
    "typ": "industrilokal",
    "hemsida": "",
    "telefon": "",
    "osm_tags": {
      "building": "industrial",
      "source": "Bing"
    },
    "org_nr": "",
    "omsattning_kr": 0,
    "bransch": ""
  },
  {
    "source": "openstreetmap",
    "city": "Södertälje",
    "name": "",
    "lat": 59.209722,
    "lng": 17.65614,
    "adress": " ",
    "postnr": "",
    "ort": "Södertälje",
    "typ": "industrilokal",
    "hemsida": "",
    "telefon": "",
    "osm_tags": {
      "building": "industrial",
      "source": "Bing"
    },
    "org_nr": "",
    "omsattning_kr": 0,
    "bransch": ""
  },
  {
    "source": "openstreetmap",
    "city": "Södertälje",
    "name": "",
    "lat": 59.206822,
    "lng": 17.651065,
    "adress": " ",
    "postnr": "",
    "ort": "Södertälje",
    "typ": "industrilokal",
    "hemsida": "",
    "telefon": "",
    "osm_tags": {
      "building": "industrial",
      "source": "Bing"
    },
    "org_nr": "",
    "omsattning_kr": 0,
    "bransch": ""
  },
  {
    "source": "openstreetmap",
    "city": "Södertälje",
    "name": "",
    "lat": 59.205474,
    "lng": 17.653169,
    "adress": " ",
    "postnr": "",
    "ort": "Södertälje",
    "typ": "industrilokal",
    "hemsida": "",
    "telefon": "",
    "osm_tags": {
      "building": "industrial",
      "source": "Bing"
    },
    "org_nr": "",
    "omsattning_kr": 0,
    "bransch": ""
  },
  {
    "source": "openstreetmap",
    "city": "Södertälje",
    "name": "",
    "lat": 59.204634,
    "lng": 17.655334,
    "adress": " ",
    "postnr": "",
    "ort": "Södertälje",
    "typ": "industrilokal",
    "hemsida": "",
    "telefon": "",
    "osm_tags": {
      "building": "industrial",
      "source": "Bing"
    },
    "org_nr": "",
    "omsattning_kr": 0,
    "bransch": ""
  },
  {
    "source": "openstreetmap",
    "city": "Södertälje",
    "name": "",
    "lat": 59.206542,
    "lng": 17.658132,
    "adress": " ",
    "postnr": "",
    "ort": "Södertälje",
    "typ": "industrilokal",
    "hemsida": "",
    "telefon": "",
    "osm_tags": {
      "building": "industrial",
      "source": "Bing"
    },
    "org_nr": "",
    "omsattning_kr": 0,
    "bransch": ""
  },
  {
    "source": "openstreetmap",
    "city": "Södertälje",
    "name": "",
    "lat": 59.21104,
    "lng": 17.658773,
    "adress": " ",
    "postnr": "",
    "ort": "Södertälje",
    "typ": "industrilokal",
    "hemsida": "",
    "telefon": "",
    "osm_tags": {
      "building": "industrial",
      "building:colour": "chocolate",
      "roof:colour": "lightgray",
      "source": "Bing"
    },
    "org_nr": "",
    "omsattning_kr": 0,
    "bransch": ""
  },
  {
    "source": "openstreetmap",
    "city": "Södertälje",
    "name": "",
    "lat": 59.205527,
    "lng": 17.647062,
    "adress": " ",
    "postnr": "",
    "ort": "Södertälje",
    "typ": "industrilokal",
    "hemsida": "",
    "telefon": "",
    "osm_tags": {
      "building": "industrial",
      "source": "Bing"
    },
    "org_nr": "",
    "omsattning_kr": 0,
    "bransch": ""
  },
  {
    "source": "openstreetmap",
    "city": "Södertälje",
    "name": "",
    "lat": 59.204411,
    "lng": 17.648552,
    "adress": " ",
    "postnr": "",
    "ort": "Södertälje",
    "typ": "industrilokal",
    "hemsida": "",
    "telefon": "",
    "osm_tags": {
      "building": "industrial"
    },
    "org_nr": "",
    "omsattning_kr": 0,
    "bransch": ""
  },
  {
    "source": "openstreetmap",
    "city": "Södertälje",
    "name": "",
    "lat": 59.207889,
    "lng": 17.644203,
    "adress": " ",
    "postnr": "",
    "ort": "Södertälje",
    "typ": "industrilokal",
    "hemsida": "",
    "telefon": "",
    "osm_tags": {
      "building": "industrial"
    },
    "org_nr": "",
    "omsattning_kr": 0,
    "bransch": ""
  },
  {
    "source": "openstreetmap",
    "city": "Södertälje",
    "name": "",
    "lat": 59.211,
    "lng": 17.647996,
    "adress": " ",
    "postnr": "",
    "ort": "Södertälje",
    "typ": "industrilokal",
    "hemsida": "",
    "telefon": "",
    "osm_tags": {
      "building": "industrial",
      "source": "Bing"
    },
    "org_nr": "",
    "omsattning_kr": 0,
    "bransch": ""
  },
  {
    "source": "openstreetmap",
    "city": "Södertälje",
    "name": "",
    "lat": 59.20846,
    "lng": 17.647061,
    "adress": " ",
    "postnr": "",
    "ort": "Södertälje",
    "typ": "industrilokal",
    "hemsida": "",
    "telefon": "",
    "osm_tags": {
      "building": "industrial",
      "source": "Bing"
    },
    "org_nr": "",
    "omsattning_kr": 0,
    "bransch": ""
  },
  {
    "source": "openstreetmap",
    "city": "Södertälje",
    "name": "",
    "lat": 59.209093,
    "lng": 17.642898,
    "adress": " ",
    "postnr": "",
    "ort": "Södertälje",
    "typ": "industrilokal",
    "hemsida": "",
    "telefon": "",
    "osm_tags": {
      "building": "industrial",
      "source": "Bing"
    },
    "org_nr": "",
    "omsattning_kr": 0,
    "bransch": ""
  },
  {
    "source": "openstreetmap",
    "city": "Södertälje",
    "name": "",
    "lat": 59.209619,
    "lng": 17.645499,
    "adress": " ",
    "postnr": "",
    "ort": "Södertälje",
    "typ": "industrilokal",
    "hemsida": "",
    "telefon": "",
    "osm_tags": {
      "building": "industrial",
      "source": "Bing"
    },
    "org_nr": "",
    "omsattning_kr": 0,
    "bransch": ""
  },
  {
    "source": "openstreetmap",
    "city": "Södertälje",
    "name": "",
    "lat": 59.210398,
    "lng": 17.640606,
    "adress": " ",
    "postnr": "",
    "ort": "Södertälje",
    "typ": "industrilokal",
    "hemsida": "",
    "telefon": "",
    "osm_tags": {
      "building": "industrial",
      "source": "Bing"
    },
    "org_nr": "",
    "omsattning_kr": 0,
    "bransch": ""
  },
  {
    "source": "openstreetmap",
    "city": "Södertälje",
    "name": "",
    "lat": 59.211426,
    "lng": 17.644172,
    "adress": " ",
    "postnr": "",
    "ort": "Södertälje",
    "typ": "industrilokal",
    "hemsida": "",
    "telefon": "",
    "osm_tags": {
      "building": "industrial",
      "source": "Bing"
    },
    "org_nr": "",
    "omsattning_kr": 0,
    "bransch": ""
  },
  {
    "source": "openstreetmap",
    "city": "Södertälje",
    "name": "",
    "lat": 59.213903,
    "lng": 17.64809,
    "adress": " ",
    "postnr": "",
    "ort": "Södertälje",
    "typ": "industrilokal",
    "hemsida": "",
    "telefon": "",
    "osm_tags": {
      "building": "industrial",
      "source": "Bing"
    },
    "org_nr": "",
    "omsattning_kr": 0,
    "bransch": ""
  },
  {
    "source": "openstreetmap",
    "city": "Södertälje",
    "name": "",
    "lat": 59.212649,
    "lng": 17.646498,
    "adress": " ",
    "postnr": "",
    "ort": "Södertälje",
    "typ": "industrilokal",
    "hemsida": "",
    "telefon": "",
    "osm_tags": {
      "building": "industrial",
      "source": "Bing"
    },
    "org_nr": "",
    "omsattning_kr": 0,
    "bransch": ""
  },
  {
    "source": "openstreetmap",
    "city": "Södertälje",
    "name": "",
    "lat": 59.213764,
    "lng": 17.650923,
    "adress": " ",
    "postnr": "",
    "ort": "Södertälje",
    "typ": "industrilokal",
    "hemsida": "",
    "telefon": "",
    "osm_tags": {
      "building": "industrial",
      "building:colour": "gray",
      "roof:colour": "lightgray",
      "source": "Bing"
    },
    "org_nr": "",
    "omsattning_kr": 0,
    "bransch": ""
  },
  {
    "source": "openstreetmap",
    "city": "Södertälje",
    "name": "",
    "lat": 59.215384,
    "lng": 17.65022,
    "adress": " ",
    "postnr": "",
    "ort": "Södertälje",
    "typ": "industrilokal",
    "hemsida": "",
    "telefon": "",
    "osm_tags": {
      "building": "industrial",
      "building:colour": "red",
      "roof:colour": "gray",
      "source": "Bing"
    },
    "org_nr": "",
    "omsattning_kr": 0,
    "bransch": ""
  },
  {
    "source": "openstreetmap",
    "city": "Södertälje",
    "name": "",
    "lat": 59.205153,
    "lng": 17.611397,
    "adress": " ",
    "postnr": "",
    "ort": "Södertälje",
    "typ": "industrilokal",
    "hemsida": "",
    "telefon": "",
    "osm_tags": {
      "building": "industrial",
      "source": "Bing"
    },
    "org_nr": "",
    "omsattning_kr": 0,
    "bransch": ""
  },
  {
    "source": "openstreetmap",
    "city": "Södertälje",
    "name": "",
    "lat": 59.205065,
    "lng": 17.615646,
    "adress": " ",
    "postnr": "",
    "ort": "Södertälje",
    "typ": "industrilokal",
    "hemsida": "",
    "telefon": "",
    "osm_tags": {
      "building": "industrial",
      "source": "Bing"
    },
    "org_nr": "",
    "omsattning_kr": 0,
    "bransch": ""
  },