[{"name":"COOP Fryslager Enköping","lat":59.640111,"lng":17.157649,"city":"Enköping","adress":"Varggatan","postnr":"74940","typ":"lager","bransch":"","org_nr":"","allabolag_url":"","hemsida":""},{"name":"Haga tegelbruk","lat":59.602641,"lng":17.058164,"city":"Enköping","adress":"Tegelbruksvägen","postnr":"74593","typ":"industri","bransch":"","org_nr":"","allabolag_url":"","hemsida":""},{"name":"Ena Energi","lat":59.628202,"lng":17.077532,"city":"Enköping","adress":"Kaptensgatan","postnr":"74935","typ":"industri","bransch":"Extern verkställande direktör Torbjörn Gunnar Claesson","org_nr":"556153-8389","allabolag_url":"https://www.allabolag.se/foretag/ena-energi-ab/enk%C3%B6ping/fj%C3%A4rrv%C3%A4rme/2JZ72HHI63IG2","hemsida":""},{"name":"Nyby bruk","lat":59.430352,"lng":16.464365,"city":"Eskilstuna","adress":"Andbäcksvägen","postnr":"64431","typ":"industri","bransch":"Ordförande Mats Oscar Johan Broling","org_nr":"556602-0698","allabolag_url":"https://www.allabolag.se/foretag/nyby-bruk-ab/gnosj%C3%B6/metaller-legeringar/2K1V522I5YGAN","hemsida":""},{"name":"Grönsta industriområde","lat":59.378239,"lng":16.578878,"city":"Eskilstuna","adress":"Vägmästarvägen","postnr":"63502","typ":"industri","bransch":"","org_nr":"","allabolag_url":"","hemsida":""},{"name":"Eklunda industriområde","lat":59.411878,"lng":16.470641,"city":"Eskilstuna","adress":"Såggatan","postnr":"64430","typ":"industri","bransch":"","org_nr":"","allabolag_url":"","hemsida":""},{"name":"EKTAB","lat":59.348139,"lng":16.475861,"city":"Eskilstuna","adress":"Montörgatan 1","postnr":"63232","typ":"industrilokal","bransch":"Ledamot Per Ola Eifrém","org_nr":"556631-8902","allabolag_url":"https://www.allabolag.se/foretag/ekab-entreprenad-i-gr%C3%B6dinge-ab/s%C3%B6dert%C3%A4lje/entrepren%C3%B6rer/2K21J5II63IFX","hemsida":""},{"name":"DHL","lat":59.387365,"lng":16.45003,"city":"Eskilstuna","adress":"Folkestaleden 7","postnr":"63223","typ":"industri","bransch":"Verkställande direktör Robert Kenth Zander","org_nr":"556103-0437","allabolag_url":"https://www.allabolag.se/foretag/dhl-freight-sweden-ab/solna/transportf%C3%B6rmedling/2JYW6JPI5YI2J","hemsida":""},{"name":"Eskilstuna Handelsstål AB","lat":59.400904,"lng":16.429443,"city":"Eskilstuna","adress":"E 20","postnr":"63239","typ":"industrilokal","bransch":"Extern verkställande direktör Esa Tapio Ahonen","org_nr":"556583-6227","allabolag_url":"https://www.allabolag.se/foretag/eskilstuna-handelsst%C3%A5l-ab/eskilstuna/metaller-legeringar/2K1R6PVI5YGAN","hemsida":""},{"name":"Volvo Demofält","lat":59.411693,"lng":16.429511,"city":"Eskilstuna","adress":"Bolindervägen","postnr":"63239","typ":"industri","bransch":"","org_nr":"","allabolag_url":"","hemsida":""},{"name":"EPC Sverige AB","lat":59.366663,"lng":16.62663,"city":"Eskilstuna","adress":"Hugelsta","postnr":"635 02","typ":"fabrik","bransch":"Verkställande direktör Nils Edvin Patrik Norén","org_nr":"556588-7857","allabolag_url":"https://www.allabolag.se/foretag/epc-sverige-ab/eskilstuna/kemikalier-industrikemikalier-tillverkning/2K1SAK1I63IHZ","hemsida":"https://www.epc-groupe.se/"},{"name":"Bilskrot","lat":59.336005,"lng":17.048187,"city":"Strängnäs","adress":"Malmbyvägen","postnr":"64547","typ":"industri","bransch":"Extern verkställande direktör Oscar Eric Bjurhovd","org_nr":"556123-5325","allabolag_url":"https://www.allabolag.se/foretag/aktiebolaget-harrys-bilskrot/malm%C3%B6/bilar/2JZ0KN1I5YCZW","hemsida":""},{"name":"Strängnäs Bilskrot","lat":59.335816,"lng":17.05494,"city":"Strängnäs","adress":"Malmbyvägen","postnr":"64547","typ":"industri","bransch":"Ledamot Ali Rahimi","org_nr":"556911-5750","allabolag_url":"https://www.allabolag.se/foretag/str%C3%A4ngn%C3%A4s-bil-skrot-aktiebolag/str%C3%A4ngn%C3%A4s/avfallshantering/2K3PH7QI63IOK","hemsida":""},{"name":"Finja Betong AB","lat":59.324311,"lng":17.063071,"city":"Strängnäs","adress":"Betongvägen 15","postnr":"64594","typ":"fabrik","bransch":"Extern verkställande direktör Kjell Daniel Jonsson","org_nr":"556101-6840","allabolag_url":"https://www.allabolag.se/foretag/finja-betong-ab/finja/betong-betongvaror-produktion/2JYVW20I63IMB","hemsida":""},{"name":"Sandåsa Träförädling","lat":59.347435,"lng":17.122943,"city":"Strängnäs","adress":"","postnr":"64594","typ":"industri","bransch":"","org_nr":"","allabolag_url":"","hemsida":"https://www.sandasa.se"},{"name":"Malmby Bilskrot","lat":59.32262,"lng":17.076144,"city":"Strängnäs","adress":"D 900","postnr":"64594","typ":"industri","bransch":"Ledamot Ali Tahsin Fattah","org_nr":"556259-7566","allabolag_url":"https://www.allabolag.se/foretag/malmby-bilskrot-aktiebolag/str%C3%A4ngn%C3%A4s/transportf%C3%B6rmedling/2JZTRR2I5YI2J","hemsida":""},{"name":"Sundby gamla vattentorn","lat":59.384214,"lng":17.049236,"city":"Strängnäs","adress":"Vattentornsbacken","postnr":"64551","typ":"industrilokal","bransch":"","org_nr":"","allabolag_url":"","hemsida":""},{"name":"Åsporten","lat":58.982718,"lng":16.231999,"city":"Katrineholm","adress":"Eriksbergsvägen","postnr":"64132","typ":"industri","bransch":"Verkställande direktör Mats Erik Sven Gillstam","org_nr":"556569-5367","allabolag_url":"https://www.allabolag.se/foretag/%C3%A5sporten-f%C3%B6rvaltning-ab/katrineholm/fastighetsbolag-lokaler/2K1O613I5YDUJ","hemsida":""},{"name":"Stibo Complete","lat":58.995564,"lng":16.180809,"city":"Katrineholm","adress":"Högmossevägen","postnr":"64136","typ":"industri","bransch":"Extern verkställande direktör Palle Jacobsen","org_nr":"559049-4968","allabolag_url":"https://www.allabolag.se/foretag/stibo-complete-ab/katrineholm/tryckerier/2KGFPIWI5YI3L","hemsida":""},{"name":"AWS eu-north-1 Availability Zone K","lat":58.996416,"lng":16.235174,"city":"Katrineholm","adress":"Terminalgatan","postnr":"64149","typ":"industrilokal","bransch":"","org_nr":"","allabolag_url":"","hemsida":""},{"name":"Energihuset","lat":59.010021,"lng":16.204937,"city":"Katrineholm","adress":"","postnr":"64146","typ":"industrilokal","bransch":"Verkställande direktör Tom Charles Lynbech","org_nr":"556566-3639","allabolag_url":"https://www.allabolag.se/foretag/energihuset-i-vimmerby-ab/vimmerby/j%C3%A4rnvaror/2K1NHJRI5YEU5","hemsida":""},{"name":"Igelstaverket","lat":59.176899,"lng":17.666481,"city":"Södertälje","adress":"","postnr":"15257","typ":"industri","bransch":"","org_nr":"","allabolag_url":"","hemsida":""},{"name":"Almnäs","lat":59.170878,"lng":17.530213,"city":"Södertälje","adress":"Kaserngatan","postnr":"15166","typ":"industri","bransch":"Verkställande direktör Hans Uno Mickael Thomas Berglund","org_nr":"556307-3468","allabolag_url":"https://www.allabolag.se/foretag/almn%C3%A4s-bruk-ab/hjo/jordbruk/2K03YYKI63IHJ","hemsida":""},{"name":"AVL","lat":59.17551,"lng":17.618926,"city":"Södertälje","adress":"Transmissionsvägen","postnr":"15147","typ":"industrilokal","bransch":"Extern verkställande direktör Dan Mikael Lilja","org_nr":"556765-3786","allabolag_url":"https://www.allabolag.se/foretag/nordv%C3%A4stra-sk%C3%A5nes-vatten-och-avlopp-ab/helsingborg/vvs-arbeten-material-och-produkter/2K2U55MI5YILC","hemsida":""},{"name":"Scania","lat":59.164562,"lng":17.644431,"city":"Södertälje","adress":"Verkstadsvägen","postnr":"15138","typ":"industri","bransch":"Verkställande direktör Rolf Christian Levin","org_nr":"556084-0976","allabolag_url":"https://www.allabolag.se/foretag/scania-cv-aktiebolag/s%C3%B6dert%C3%A4lje/bilar/2JYS4CWI5YCZW","hemsida":""},{"name":"Scania","lat":59.159194,"lng":17.644398,"city":"Södertälje","adress":"Sydgatan 5","postnr":"15138","typ":"industri","bransch":"Verkställande direktör Rolf Christian Levin","org_nr":"556084-0976","allabolag_url":"https://www.allabolag.se/foretag/scania-cv-aktiebolag/s%C3%B6dert%C3%A4lje/bilar/2JYS4CWI5YCZW","hemsida":""},{"name":"Hovsjö industriområde","lat":59.181224,"lng":17.587175,"city":"Södertälje","adress":"Gesällvägen","postnr":"15165","typ":"industri","bransch":"77390 Uthyrning och leasing av diverse övrig utrustning samt diverse övriga maskiner och materiella tillgångar","org_nr":"717910-4596","allabolag_url":"https://www.allabolag.se/foretag/domsj%C3%B6-industriomr%C3%A5de-samf%C3%A4llighetsf%C3%B6rening/%C3%B6rnsk%C3%B6ldsvik/uthyrning/3AQ94K4I5YIEZ","hemsida":""},{"name":"106","lat":59.169766,"lng":17.635979,"city":"Södertälje","adress":"Nyköpingsvägen","postnr":"15187","typ":"industri","bransch":"Ordförande Ulf Mathias Aronsson","org_nr":"556975-5589","allabolag_url":"https://www.allabolag.se/foretag/wallenstam-fastigheter-106-ab/g%C3%B6teborg/fastighetsbolag-lokaler/2K436X1I5YDUJ","hemsida":""},{"name":"AstraZeneca","lat":59.203728,"lng":17.614817,"city":"Södertälje","adress":"Forskargatan 13","postnr":"15136","typ":"industri","bransch":"Verkställande direktör Per David Alfredsson","org_nr":"556011-7482","allabolag_url":"https://www.allabolag.se/foretag/astrazeneca-ab/s%C3%B6dert%C3%A4lje/l%C3%A4kemedel/2JYCM3UI5YFOF","hemsida":""},{"name":"Brandalsunds skola","lat":59.116489,"lng":17.640888,"city":"Södertälje","adress":"Nyköpingsvägen","postnr":"15139","typ":"industrilokal","bransch":"","org_nr":"","allabolag_url":"","hemsida":""},{"name":"102","lat":59.167545,"lng":17.635228,"city":"Södertälje","adress":"Granparksvägen","postnr":"15187","typ":"industrilokal","bransch":"Verkställande direktör Bo Christer Lundstedt","org_nr":"556640-0262","allabolag_url":"https://www.allabolag.se/foretag/hedern-fastigheter-102-ab/sundsvall/fastighetsbolag-lokaler/2K239XII5YDUJ","hemsida":""},{"name":"Tekniska Kontoret","lat":59.205784,"lng":17.751892,"city":"Södertälje","adress":"Förrådsvägen 6","postnr":"144 40","typ":"industrilokal","bransch":"Ledamot Jenz Robert Åberg","org_nr":"556501-1938","allabolag_url":"https://www.allabolag.se/foretag/teknik-kontor-servrar-i-%C3%B6rebro-ab/%C3%B6rebro/datorer-kringutrustningar/2K19IOYI5YCUH","hemsida":""},{"name":"Skarlunda","lat":59.171098,"lng":17.724676,"city":"Södertälje","adress":"Sörmlandsleden","postnr":"14463","typ":"industri","bransch":"68209 Övrig förvaltning av egna eller arrenderade fastigheter","org_nr":"802447-2204","allabolag_url":"https://www.allabolag.se/foretag/skarlunda-v%C3%A4gf%C3%B6rening/s%C3%B6dert%C3%A4lje/fastighetsbolag-lokaler/3OPKADOI5YDUJ","hemsida":""},{"name":"Mörby","lat":59.184362,"lng":17.4673,"city":"Södertälje","adress":"Norra Gärdet","postnr":"15534","typ":"industri","bransch":"Extern verkställande direktör Per Niclas Stephani","org_nr":"556528-7629","allabolag_url":"https://www.allabolag.se/foretag/m%C3%B6rbyl%C3%A5nga-bostads-aktiebolag/m%C3%B6rbyl%C3%A5nga/fastighetsbolag-lokaler/2K1FFF1I5YDUJ","hemsida":""},{"name":"Volkswagen Group Sverige AB","lat":59.179336,"lng":17.480145,"city":"Södertälje","adress":"Mörbyvägen","postnr":"15534","typ":"industrilokal","bransch":"Verkställande direktör Claes Peter Jerveland","org_nr":"556084-0968","allabolag_url":"https://www.allabolag.se/foretag/volkswagen-group-sverige/s%C3%B6dert%C3%A4lje/bilar/2JYS4COI5YCZW","hemsida":""},{"name":"AstraZeneca","lat":59.177094,"lng":17.679609,"city":"Södertälje","adress":"","postnr":"15257","typ":"industri","bransch":"Verkställande direktör Per David Alfredsson","org_nr":"556011-7482","allabolag_url":"https://www.allabolag.se/foretag/astrazeneca-ab/s%C3%B6dert%C3%A4lje/l%C3%A4kemedel/2JYCM3UI5YFOF","hemsida":""},{"name":"Geneta Panncentral","lat":59.194735,"lng":17.590837,"city":"Södertälje","adress":"Prästgårdsvägen","postnr":"15161","typ":"industri","bransch":"","org_nr":"","allabolag_url":"","hemsida":""},{"name":"Igelsta Hamn","lat":59.174903,"lng":17.66471,"city":"Södertälje","adress":"Nynäsvägen","postnr":"15257","typ":"industri","bransch":"","org_nr":"","allabolag_url":"","hemsida":""},{"name":"Racehall Stockholm AB","lat":59.162324,"lng":17.739991,"city":"Södertälje","adress":"Sörmlandsleden","postnr":"14463","typ":"lager","bransch":"Extern verkställande direktör Peter Vindbæk Skjødt-Jacobsen","org_nr":"559451-4241","allabolag_url":"https://www.allabolag.se/foretag/racehall-stockholm-ab/gr%C3%B6dinge/motorbanor/2KITUTDI63IUD","hemsida":""},{"name":"Bolmängens industriområde","lat":59.063182,"lng":16.587506,"city":"Flen","adress":"Bolmängsgatan","postnr":"64232","typ":"industri","bransch":"","org_nr":"","allabolag_url":"","hemsida":""},{"name":"Talja Södra","lat":59.074103,"lng":16.610925,"city":"Flen","adress":"Taljavägen","postnr":"64233","typ":"industri","bransch":"","org_nr":"","allabolag_url":"","hemsida":""},{"name":"Talja Södra","lat":59.072846,"lng":16.600138,"city":"Flen","adress":"Taljavägen","postnr":"64233","typ":"industri","bransch":"","org_nr":"","allabolag_url":"","hemsida":""},{"name":"Talja Norra","lat":59.079543,"lng":16.604987,"city":"Flen","adress":"Blockvägen","postnr":"64233","typ":"industri","bransch":"","org_nr":"","allabolag_url":"","hemsida":""},{"name":"Volvo Group Trucks Operations","lat":59.05698,"lng":16.580845,"city":"Flen","adress":"Drottninggatan","postnr":"64237","typ":"industri","bransch":"","org_nr":"","allabolag_url":"","hemsida":""},{"name":"Magnum ICC Sweden Supply AB (GB Glace)","lat":59.059371,"lng":16.58675,"city":"Flen","adress":"Storgatan 11","postnr":"64237","typ":"fabrik","bransch":"","org_nr":"","allabolag_url":"","hemsida":""},{"name":"Momento AB","lat":59.056528,"lng":16.615919,"city":"Flen","adress":"Kungsvägen","postnr":"64233","typ":"industri","bransch":"Verkställande direktör Nils Torbjörn Palmberg","org_nr":"556475-6848","allabolag_url":"https://www.allabolag.se/foretag/ab-momento/flen/verktyg-och-redskap/2K141V4I63IL9","hemsida":""},{"name":"Företagsby","lat":59.040186,"lng":16.591383,"city":"Flen","adress":"Öjavägen","postnr":"64234","typ":"industri","bransch":"Ordförande Kjell Emanuel Nilsberg","org_nr":"556176-9521","allabolag_url":"https://www.allabolag.se/foretag/vallentuna-f%C3%B6retagsby-aktiebolag/vallentuna/fastighetsbolag-lokaler/2JZC0TTI5YDUJ","hemsida":""},{"name":"Volvo Group Trucks Operations","lat":59.077783,"lng":16.607041,"city":"Flen","adress":"Blockvägen","postnr":"64233","typ":"industrilokal","bransch":"","org_nr":"","allabolag_url":"","hemsida":""},{"name":"Idbäcken","lat":58.747773,"lng":16.995177,"city":"Nyköping","adress":"Åkerbärsvägen","postnr":"61130","typ":"industri","bransch":"Ledamot Carl Jakob Johansson","org_nr":"556857-0088","allabolag_url":"https://www.allabolag.se/foretag/fastighets-ab-idb%C3%A4cken/stockholm/fastighetsbolag-lokaler/2K3DS6GI5YDUJ","hemsida":""},{"name":"Hall 9, Hall 10","lat":58.683241,"lng":17.122426,"city":"Nyköping","adress":"","postnr":"61331","typ":"industrilokal","bransch":"","org_nr":"","allabolag_url":"","hemsida":""},{"name":"SSAB Oxelösund","lat":58.674166,"lng":17.126991,"city":"Nyköping","adress":"","postnr":"61331","typ":"industri","bransch":"94200 Intressebevakning inom arbetstagarorganisationer","org_nr":"802416-3696","allabolag_url":"https://www.allabolag.se/foretag/cf-klubben-ssab-oxel%C3%B6sund/oxel%C3%B6sund/f%C3%B6reningar/3OPDOC0I63IGG","hemsida":""},{"name":"Idbäckens Kraftvärmeverk","lat":58.742861,"lng":17.000611,"city":"Nyköping","adress":"Idbäcksvägen","postnr":"61129","typ":"industri","bransch":"","org_nr":"","allabolag_url":"","hemsida":""},{"name":"Heda Skandinavien AB","lat":58.771635,"lng":17.031461,"city":"Nyköping","adress":"Svärtavägen","postnr":"61166","typ":"industri","bransch":"","org_nr":"","allabolag_url":"","hemsida":""},{"name":"Eberspächer","lat":58.714244,"lng":17.02322,"city":"Nyköping","adress":"Flättnaleden","postnr":"61145","typ":"industrilokal","bransch":"Extern verkställande direktör Karl Gunnar Stålheim Geijer","org_nr":"556012-4561","allabolag_url":"https://www.allabolag.se/foretag/ebersp%C3%A4cher-aktiebolag/trollh%C3%A4ttan/detaljhandel/2JYCRKHI63ILU","hemsida":""},{"name":"Schneider Electric","lat":58.765441,"lng":16.987187,"city":"Nyköping","adress":"Mejerivägen","postnr":"61155","typ":"industrilokal","bransch":"Verkställande direktör Anna Kristina Andersson","org_nr":"556259-3532","allabolag_url":"https://www.allabolag.se/foretag/schneider-electric-sverige-ab/solna/elektronik-och-telekommunikationsutrustning/2JZTON0I63IFR","hemsida":""},{"name":"Perioden","lat":58.760017,"lng":17.005791,"city":"Nyköping","adress":"Periodgången","postnr":"61133","typ":"industrilokal","bransch":"Ledamot Farouk Eskander","org_nr":"559501-6329","allabolag_url":"https://www.allabolag.se/foretag/periodent-ab/h%C3%A4sselby/h%C3%A4lsotj%C3%A4nster/2KJ4M89I63IHB","hemsida":""},{"name":"Bara industriområde","lat":58.684329,"lng":17.065456,"city":"Nyköping","adress":"Baravägen 5","postnr":"61341","typ":"industri","bransch":"","org_nr":"","allabolag_url":"","hemsida":""},{"name":"Tegelladan","lat":58.693486,"lng":17.041126,"city":"Nyköping","adress":"Lastuddsvägen","postnr":"61338","typ":"industri","bransch":"Ordförande Lena Birgitta Sköld","org_nr":"769606-2764","allabolag_url":"https://www.allabolag.se/foretag/bostadsr%C3%A4ttsf%C3%B6reningen-tegelladan-1/sundsvall/fastighetsbolag-lokaler/3JA1C18I5YDUJ","hemsida":""},{"name":"Orio AB","lat":58.716024,"lng":17.01638,"city":"Nyköping","adress":"Flättnaleden","postnr":"61145","typ":"lager","bransch":"Extern verkställande direktör Jesper Otto Qvist-Pedersen","org_nr":"556193-6294","allabolag_url":"https://www.allabolag.se/foretag/orion-pharma-aktiebolag/danderyd/apoteksvaror-l%C3%A4kemedel-partihandel/2JZFLIEI63IM3","hemsida":""},{"name":"Höglager MTB","lat":58.684666,"lng":17.126559,"city":"Nyköping","adress":"","postnr":"61331","typ":"industrilokal","bransch":"","org_nr":"","allabolag_url":"","hemsida":""},{"name":"Sjoklagret","lat":58.685256,"lng":17.130577,"city":"Nyköping","adress":"","postnr":"61331","typ":"industrilokal","bransch":"Ledamot Jan Magnus Gustafsson","org_nr":"559160-7899","allabolag_url":"https://www.allabolag.se/foretag/hjolagret-ab/hjo/k%C3%B6ksinredningar-agentur-och-grossist/2KH3K9NI63IIE","hemsida":""},{"name":"Brandkärr värmecentral","lat":58.768709,"lng":17.023404,"city":"Nyköping","adress":"Brandkärrsvägen","postnr":"61165","typ":"industri","bransch":"","org_nr":"","allabolag_url":"","hemsida":""},{"name":"Kullbergs","lat":58.748779,"lng":17.019984,"city":"Nyköping","adress":"Ringvägen","postnr":"61135","typ":"industrilokal","bransch":"Ledamot Magnus Kullberg","org_nr":"556309-3292","allabolag_url":"https://www.allabolag.se/foretag/kullbergs-mur-och-bygg-aktiebolag/ronneby/byggm%C3%A4stare/2K04E98I5YDDT","hemsida":""},{"name":"Harsco","lat":58.685994,"lng":17.132846,"city":"Nyköping","adress":"","postnr":"61331","typ":"industrilokal","bransch":"Verkställande direktör Lars Ove Lindqvist","org_nr":"556177-2566","allabolag_url":"https://www.allabolag.se/foretag/harsco-metals-sweden-ab/norberg/avfallshantering/2JZC36EI63IOK","hemsida":""},{"name":"Foria","lat":58.682395,"lng":17.137789,"city":"Nyköping","adress":"","postnr":"61331","typ":"industrilokal","bransch":"Extern verkställande direktör Jonas Lars Skovgaard","org_nr":"556069-1684","allabolag_url":"https://www.allabolag.se/foretag/foria-ab-publ/s%C3%B6dert%C3%A4lje/transportf%C3%B6rmedling/2JYOX5WI5YI2J","hemsida":""},{"name":"Blå tältet","lat":58.681336,"lng":17.117988,"city":"Nyköping","adress":"","postnr":"61331","typ":"industrilokal","bransch":"","org_nr":"","allabolag_url":"","hemsida":""},{"name":"OT60","lat":58.685581,"lng":17.123108,"city":"Nyköping","adress":"","postnr":"61331","typ":"industrilokal","bransch":"","org_nr":"","allabolag_url":"","hemsida":""},{"name":"Björshult Skrot & Mek AB","lat":58.709317,"lng":16.996393,"city":"Nyköping","adress":"Sörmlandsleden","postnr":"61145","typ":"industri","bransch":"Ledamot Mats Olov Andersson","org_nr":"556639-6940","allabolag_url":"https://www.allabolag.se/foretag/bj%C3%B6rshult-skrot-mek-ab/nyk%C3%B6ping/avfallshantering/2K237D8I63IOK","hemsida":""},{"name":"Econova Jordfabrik","lat":58.652148,"lng":16.180452,"city":"Norrköping","adress":"","postnr":"61630","typ":"industri","bransch":"","org_nr":"","allabolag_url":"","hemsida":""},{"name":"Hults Bruk","lat":58.67279,"lng":16.12963,"city":"Norrköping","adress":"","postnr":"61634","typ":"industri","bransch":"94990 Verksamhet i diverse övriga intresseorganisationer","org_nr":"802464-3531","allabolag_url":"https://www.allabolag.se/foretag/hults-bruks-smidescentrum/norrk%C3%B6ping/f%C3%B6reningar/3OPNYKRI63IGG","hemsida":""},{"name":"Jursla industriområde","lat":58.65222,"lng":16.173555,"city":"Norrköping","adress":"Hydraulvägen 5","postnr":"61632","typ":"industri","bransch":"Verkställande direktör Simon Karl Ragnar Tjäder","org_nr":"556036-5677","allabolag_url":"https://www.allabolag.se/foretag/evergreen-garden-care-sverige-ab/%C3%A5by/kemikalier-industrikemikalier/2JYHXM5I5YEXO","hemsida":""},{"name":"Fiskeby","lat":58.593239,"lng":16.115358,"city":"Norrköping","adress":"Fiskebyvägen","postnr":"60376","typ":"industri","bransch":"Verkställande direktör John Mattias Wahlgren","org_nr":"556032-6158","allabolag_url":"https://www.allabolag.se/foretag/fiskeby-board-ab/norrk%C3%B6ping/producenter/2JYH34EI63IK3","hemsida":""},{"name":"Strömma Företagscenter","lat":58.59842,"lng":16.135132,"city":"Norrköping","adress":"Fiskebyvägen","postnr":"60210","typ":"industri","bransch":"","org_nr":"","allabolag_url":"","hemsida":""},{"name":"Bravikens pappersbruk","lat":58.637434,"lng":16.254133,"city":"Norrköping","adress":"Östra Bravikenvägen","postnr":"60365","typ":"industri","bransch":"","org_nr":"","allabolag_url":"","hemsida":""},{"name":"Loddby f.d. sulfitfabrik","lat":58.63583,"lng":16.182504,"city":"Norrköping","adress":"Loddbyvägen","postnr":"61630","typ":"industri","bransch":"","org_nr":"","allabolag_url":"","hemsida":""},{"name":"Agroetanol","lat":58.615124,"lng":16.227268,"city":"Norrköping","adress":"","postnr":"60238","typ":"industri","bransch":"94200 Intressebevakning inom arbetstagarorganisationer","org_nr":"802537-0589","allabolag_url":"https://www.allabolag.se/foretag/unionen-p%C3%A5-lantm%C3%A4nnen-agroetanol-ab/norrk%C3%B6ping/f%C3%B6reningar/3OQ3JKTI63IGG","hemsida":""},{"name":"Martin & Servera","lat":58.613607,"lng":16.162912,"city":"Norrköping","adress":"Blygatan 25","postnr":"602 23","typ":"industrilokal","bransch":"Extern verkställande direktör Irene Waldemarson","org_nr":"559135-5549","allabolag_url":"https://www.allabolag.se/foretag/martin-servera-restauranghandel-ab/stockholm/livsmedel/2KGY5JXI5YFWD","hemsida":""},{"name":"Yara AB - gamla superfosfatfabriken","lat":58.60629,"lng":16.190911,"city":"Norrköping","adress":"Kommendantvägen","postnr":"60119","typ":"industri","bransch":"","org_nr":"","allabolag_url":"","hemsida":""},{"name":"Kühne & Nagel","lat":58.618048,"lng":16.21524,"city":"Norrköping","adress":"Bravikenvägen 10","postnr":"60238","typ":"lager","bransch":"52260 Annan stödverksamhet avseende transport","org_nr":"502096-0794","allabolag_url":"https://www.allabolag.se/foretag/k%C3%BChne-nagel-ag-co.-kg/-/transportf%C3%B6rmedling/2B1CM56I5YI2J","hemsida":""},{"name":"Skrotfrag i Norrköping AB","lat":58.605993,"lng":16.19464,"city":"Norrköping","adress":"Kommendantvägen 10","postnr":"60119","typ":"industri","bransch":"","org_nr":"","allabolag_url":"","hemsida":""},{"name":"Jens S. Transmissioner","lat":58.615072,"lng":16.154263,"city":"Norrköping","adress":"Koppargatan 9","postnr":"60223","typ":"industrilokal","bransch":"Verkställande direktör Johan Fredrik Benzler","org_nr":"556043-7005","allabolag_url":"https://www.allabolag.se/foretag/jens-s.-transmissioner-ab/norrk%C3%B6ping/insatsvaror/2JYJGNHI63IHE","hemsida":""},{"name":"GSF Tryck","lat":58.586698,"lng":16.206795,"city":"Norrköping","adress":"Verksvägen","postnr":"60228","typ":"industrilokal","bransch":"","org_nr":"","allabolag_url":"","hemsida":""},{"name":"CEOS","lat":58.604492,"lng":16.206148,"city":"Norrköping","adress":"Blixholmsvägen 5","postnr":"60238","typ":"lager","bransch":"Extern verkställande direktör Karl Johan Ludvig Dalin","org_nr":"556712-3319","allabolag_url":"https://www.allabolag.se/foretag/ceos-fritzoe-ab/n%C3%A4ssj%C3%B6/tr%C3%A4-och-byggvaror-grossist/2K2IRUFI63IL2","hemsida":""},{"name":"Karstorps bildemontering","lat":58.547618,"lng":16.161537,"city":"Norrköping","adress":"Björkebergavägen","postnr":"60595","typ":"industri","bransch":"","org_nr":"","allabolag_url":"","hemsida":""},{"name":"Kungsängens företagspark","lat":58.579787,"lng":16.233375,"city":"Norrköping","adress":"Svärmaregatan 1","postnr":"60361","typ":"industri","bransch":"","org_nr":"","allabolag_url":"","hemsida":""},{"name":"TvNo","lat":58.614792,"lng":16.145787,"city":"Norrköping","adress":"Tenngatan","postnr":"60209","typ":"industrilokal","bransch":"Extern verkställande direktör Anna Karin Elisabet Andersson","org_nr":"556194-6152","allabolag_url":"https://www.allabolag.se/foretag/tvno-textilservice-aktiebolag/norrk%C3%B6ping/tv%C3%A4tterier/2JZFT48I5YI7I","hemsida":""},{"name":"Holmen Timber Braviken","lat":58.638861,"lng":16.232668,"city":"Norrköping","adress":"","postnr":"60365","typ":"industri","bransch":"","org_nr":"","allabolag_url":"","hemsida":""},{"name":"Polyproject","lat":58.690991,"lng":16.345607,"city":"Norrköping","adress":"Gamla Krokeksvägen","postnr":"61833","typ":"industri","bransch":"Extern verkställande direktör Isabell Inger Ramona Lindahl","org_nr":"556908-6282","allabolag_url":"https://www.allabolag.se/foretag/polyproject-environment-ab/kolm%C3%A5rden/milj%C3%B6teknik/2K3OUH6I5YGC3","hemsida":""},{"name":"PM51 PM52","lat":58.639941,"lng":16.261325,"city":"Norrköping","adress":"Östra Bravikenvägen","postnr":"60365","typ":"industrilokal","bransch":"","org_nr":"","allabolag_url":"","hemsida":""},{"name":"Fiskeby kraftverk","lat":58.593861,"lng":16.121465,"city":"Norrköping","adress":"Vattenverksvägen","postnr":"60210","typ":"industrilokal","bransch":"","org_nr":"","allabolag_url":"","hemsida":""},{"name":"Strömsfors industriområde","lat":58.68601,"lng":16.341344,"city":"Norrköping","adress":"Hagalundsvägen","postnr":"61833","typ":"industri","bransch":"","org_nr":"","allabolag_url":"","hemsida":""},{"name":"Columbia Elektronik","lat":58.671842,"lng":16.36331,"city":"Norrköping","adress":"Sjöviksvägen","postnr":"61830","typ":"industrilokal","bransch":"Verkställande direktör Mats Göran Klarholm","org_nr":"556174-9317","allabolag_url":"https://www.allabolag.se/foretag/columbia-elektronik-aktiebolag/kolm%C3%A5rden/elektronik-legotillverkning/2JZBL8LI5YDXQ","hemsida":"https://www.columbia.se/"},{"name":"DSV","lat":58.608148,"lng":16.224857,"city":"Norrköping","adress":"Hanholmsvägen 50","postnr":"60238","typ":"lager","bransch":"Extern verkställande direktör Tomas Erik Johansson","org_nr":"556250-3630","allabolag_url":"https://www.allabolag.se/foretag/dsv-road-ab/g%C3%B6teborg/transportf%C3%B6rmedling/2JZRR9QI5YI2J","hemsida":""},{"name":"PM53","lat":58.641419,"lng":16.262418,"city":"Norrköping","adress":"Östra Bravikenvägen","postnr":"60365","typ":"industrilokal","bransch":"Innehavare Peter Christian Falksäter","org_nr":"","allabolag_url":"https://www.allabolag.se/foretag/pm63-charlottenberg/charlottenberg/h%C3%A4lsotj%C3%A4nster/7VJQ7FKSRI63IHB","hemsida":""},{"name":"Loddby betong","lat":58.503032,"lng":16.238365,"city":"Norrköping","adress":"","postnr":"61492","typ":"industri","bransch":"","org_nr":"","allabolag_url":"","hemsida":""},{"name":"Rusta Lager","lat":58.637983,"lng":16.216218,"city":"Norrköping","adress":"Logistikvägen","postnr":"60238","typ":"lager","bransch":"","org_nr":"","allabolag_url":"","hemsida":""},{"name":"Händelöverket","lat":58.620648,"lng":16.23194,"city":"Norrköping","adress":"Oceangatan","postnr":"60365","typ":"industri","bransch":"","org_nr":"","allabolag_url":"","hemsida":""},{"name":"Postnord","lat":58.646627,"lng":16.20855,"city":"Norrköping","adress":"Speditionsvägen","postnr":"61690","typ":"lager","bransch":"Extern verkställande direktör Peter Davids Gisel-Ekdahl","org_nr":"556711-5695","allabolag_url":"https://www.allabolag.se/foretag/postnord-sverige-ab/solna/kurirverksamhet/2K2ILYNI5YFN0","hemsida":""},{"name":"Rusta Lager","lat":58.642092,"lng":16.213689,"city":"Norrköping","adress":"Östra Bravikenvägen","postnr":"61690","typ":"lager","bransch":"","org_nr":"","allabolag_url":"","hemsida":""},{"name":"Ingelsta Hetvattencentral","lat":58.611723,"lng":16.171432,"city":"Norrköping","adress":"Kiselgatan","postnr":"60119","typ":"industri","bransch":"","org_nr":"","allabolag_url":"","hemsida":""},{"name":"martin&servera","lat":58.641225,"lng":16.171057,"city":"Norrköping","adress":"Ströbogatan","postnr":"61634","typ":"lager","bransch":"Extern verkställande direktör Irene Waldemarson","org_nr":"559135-5549","allabolag_url":"https://www.allabolag.se/foretag/martin-servera-restauranghandel-ab/stockholm/livsmedel/2KGY5JXI5YFWD","hemsida":""},{"name":"Köpetorps industriområde","lat":58.413934,"lng":15.663745,"city":"Linköping","adress":"Köpetorpsgatan 8","postnr":"58278","typ":"industri","bransch":"","org_nr":"","allabolag_url":"","hemsida":""},{"name":"Berggårdens vattenverk","lat":58.420336,"lng":15.555569,"city":"Linköping","adress":"Berggårdsvägen","postnr":"58437","typ":"industri","bransch":"","org_nr":"","allabolag_url":"","hemsida":""},{"name":"Östra Malmskogen industriområde","lat":58.427084,"lng":15.707446,"city":"Linköping","adress":"Linghemsvägen","postnr":"58272","typ":"industri","bransch":"","org_nr":"","allabolag_url":"","hemsida":""},{"name":"SGS Analytics","lat":58.398239,"lng":15.57247,"city":"Linköping","adress":"Olaus Magnus väg 27A","postnr":"58183","typ":"industrilokal","bransch":"Verkställande direktör Lars Mikael Löfdahl","org_nr":"556152-0916","allabolag_url":"https://www.allabolag.se/foretag/sgs-analytics-sweden-ab/link%C3%B6ping/teknisk-provning-och-analys/2JZ6P04I63IKV","hemsida":""},{"name":"Tornby Teknikgård","lat":58.429404,"lng":15.61193,"city":"Linköping","adress":"Gottorpsgatan","postnr":"58277","typ":"industrilokal","bransch":"","org_nr":"","allabolag_url":"","hemsida":""},{"name":"Odenfors Kraftstation","lat":58.446533,"lng":15.466534,"city":"Linköping","adress":"","postnr":"58662","typ":"industrilokal","bransch":"","org_nr":"","allabolag_url":"","hemsida":""},{"name":"Tannefors vattenkraftstation","lat":58.400576,"lng":15.649985,"city":"Linköping","adress":"Stationsgatan 2C","postnr":"58721","typ":"industri","bransch":"","org_nr":"","allabolag_url":"","hemsida":""},{"name":"Kallerstads industriområde","lat":58.419331,"lng":15.638385,"city":"Linköping","adress":"Åsbjörnsgatan 1","postnr":"58252","typ":"industri","bransch":"","org_nr":"","allabolag_url":"","hemsida":""},{"name":"Silon","lat":58.437435,"lng":15.796133,"city":"Linköping","adress":"Tellbovägen 32","postnr":"58564","typ":"lager","bransch":"Verkställande direktör Helen Margareta Öström","org_nr":"559314-2952","allabolag_url":"https://www.allabolag.se/foretag/silon-consulting-ab/sollentuna/f%C3%B6retagsutveckling/2KI0GQ0I5YEHU","hemsida":""},{"name":"Fergas AB","lat":58.418151,"lng":15.665531,"city":"Linköping","adress":"Harstenagatan 2","postnr":"582 78","typ":"industrilokal","bransch":"Extern verkställande direktör Patrik Jonny Jonsson","org_nr":"556433-6690","allabolag_url":"https://www.allabolag.se/foretag/fergas-north-europe-ab/link%C3%B6ping/maskinf%C3%B6rn%C3%B6denheter/2K0V1O2I5YG68","hemsida":""},{"name":"Tekniska verken","lat":58.42035,"lng":15.633906,"city":"Linköping","adress":"Brogatan 1","postnr":"58252","typ":"industrilokal","bransch":"Extern verkställande direktör Bror Conny Udd","org_nr":"556004-9727","allabolag_url":"https://www.allabolag.se/foretag/tekniska-verken-i-link%C3%B6ping-ab-publ/link%C3%B6ping/fj%C3%A4rrv%C3%A4rme/2JYB5TRI63IG2","hemsida":""},{"name":"rallye.se garage","lat":58.419292,"lng":15.602117,"city":"Linköping","adress":"Slöjdgatan 31","postnr":"58231","typ":"industrilokal","bransch":"","org_nr":"","allabolag_url":"","hemsida":""},{"name":"Rörvik Timber","lat":58.440615,"lng":15.7763,"city":"Linköping","adress":"E 1064","postnr":"58564","typ":"industri","bransch":"","org_nr":"","allabolag_url":"","hemsida":"http://www.rtimber.se/sv/om-rorvik/bolagsinformation/linghem-ab/"},{"name":"Tannefors Center","lat":58.408232,"lng":15.648371,"city":"Linköping","adress":"Gamla Tanneforsvägen 17","postnr":"58254","typ":"industrilokal","bransch":"","org_nr":"","allabolag_url":"","hemsida":""},{"name":"Armaturen","lat":58.406058,"lng":15.650086,"city":"Linköping","adress":"Gelbgjutaregatan 2","postnr":"58187","typ":"industrilokal","bransch":"","org_nr":"","allabolag_url":"","hemsida":""},{"name":"TitanX","lat":58.427506,"lng":15.606288,"city":"Linköping","adress":"Roxtorpsgatan 13","postnr":"58277","typ":"industrilokal","bransch":"","org_nr":"","allabolag_url":"","hemsida":"https://www.werksta.se/"},{"name":"TK Traktordelar","lat":58.418094,"lng":15.767687,"city":"Linköping","adress":"E 757","postnr":"58565","typ":"industri","bransch":"","org_nr":"","allabolag_url":"","hemsida":""},{"name":"ServiStore","lat":58.400717,"lng":15.549273,"city":"Linköping","adress":"Jägarvallsvägen 4","postnr":"584 22","typ":"industrilokal","bransch":"","org_nr":"","allabolag_url":"","hemsida":"https://servistore.se/sv/anlaggningar/linkoping"},{"name":"Svartåfors kraftstation","lat":58.45119,"lng":15.49205,"city":"Linköping","adress":"","postnr":"58577","typ":"industrilokal","bransch":"","org_nr":"","allabolag_url":"","hemsida":""},{"name":"Shurgard Self-Storage","lat":58.419912,"lng":15.594993,"city":"Linköping","adress":"Lärlingsgatan 6","postnr":"582 39","typ":"lager","bransch":"","org_nr":"","allabolag_url":"","hemsida":"https://www.shurgard.com/sv-se/hyra-forrad/ostergotland/linkoping"},{"name":"Mottagningsstation M11","lat":58.396518,"lng":15.620627,"city":"Linköping","adress":"Garnisonsvägen","postnr":"58751","typ":"industrilokal","bransch":"","org_nr":"","allabolag_url":"","hemsida":""},{"name":"Svensk Biogas i Linköping","lat":58.430504,"lng":15.635431,"city":"Linköping","adress":"Ullevileden","postnr":"58221","typ":"industri","bransch":"","org_nr":"","allabolag_url":"","hemsida":"https://www.svenskbiogas.se/"},{"name":"Axfood Snabbgross","lat":58.427438,"lng":15.599874,"city":"Linköping","adress":"Attorpsgatan 6A","postnr":"58273","typ":"industri","bransch":"","org_nr":"","allabolag_url":"","hemsida":"https://www.snabbgross.se/"},{"name":"Beyond Gravity","lat":58.4122,"lng":15.6781,"city":"Linköping","adress":"Pilotgatan","postnr":"58725","typ":"industrilokal","bransch":"","org_nr":"","allabolag_url":"","hemsida":"https://www.beyondgravity.com"},{"name":"Vreta kloster bryggeri","lat":58.489813,"lng":15.501593,"city":"Linköping","adress":"Blåsvädersgatan 7","postnr":"585 73","typ":"industrilokal","bransch":"","org_nr":"","allabolag_url":"","hemsida":""},{"name":"Salam livs lager","lat":58.392115,"lng":15.706786,"city":"Linköping","adress":"Landerydsvägen","postnr":"58941","typ":"lager","bransch":"","org_nr":"","allabolag_url":"","hemsida":""},{"name":"Posti","lat":57.684134,"lng":14.155205,"city":"Jönköping","adress":"Möbelvägen 21","postnr":"55652","typ":"industrilokal","bransch":"","org_nr":"","allabolag_url":"","hemsida":""},{"name":"Electrolux","lat":57.686258,"lng":14.157293,"city":"Jönköping","adress":"Spisvägen 6","postnr":"55650","typ":"industrilokal","bransch":"","org_nr":"","allabolag_url":"","hemsida":""},{"name":"IKEA Lager","lat":57.685133,"lng":14.147336,"city":"Jönköping","adress":"Möbelvägen 14","postnr":"55652","typ":"lager","bransch":"","org_nr":"","allabolag_url":"","hemsida":""},{"name":"DB Schenker","lat":57.750437,"lng":14.166508,"city":"Jönköping","adress":"Industrigatan 19","postnr":"55302","typ":"lager","bransch":"","org_nr":"","allabolag_url":"","hemsida":""},{"name":"L&L Distribution AB","lat":57.752399,"lng":14.165642,"city":"Jönköping","adress":"Kabelvägen 7","postnr":"55302","typ":"distributionscenter","bransch":"","org_nr":"","allabolag_url":"","hemsida":""},{"name":"Hedenstorp norra","lat":57.769341,"lng":14.092048,"city":"Jönköping","adress":"Västersjövägen","postnr":"55593","typ":"industri","bransch":"","org_nr":"","allabolag_url":"","hemsida":""},{"name":"Hedenstorp södra","lat":57.766171,"lng":14.088358,"city":"Jönköping","adress":"Mogölsvägen 11","postnr":"55593","typ":"industri","bransch":"","org_nr":"","allabolag_url":"","hemsida":""},{"name":"Posti","lat":57.683347,"lng":14.159884,"city":"Jönköping","adress":"Möbelvägen 23","postnr":"55652","typ":"industrilokal","bransch":"","org_nr":"","allabolag_url":"","hemsida":""},{"name":"MOBIS","lat":57.692984,"lng":14.144632,"city":"Jönköping","adress":"Logistikvägen 1","postnr":"55652","typ":"lager","bransch":"","org_nr":"","allabolag_url":"","hemsida":""},{"name":"Gripen Wheels","lat":57.694998,"lng":14.143351,"city":"Jönköping","adress":"Logistikvägen 2","postnr":"55652","typ":"lager","bransch":"","org_nr":"","allabolag_url":"","hemsida":""},{"name":"Petcare","lat":57.694338,"lng":14.139678,"city":"Jönköping","adress":"Logistikvägen 4","postnr":"55652","typ":"lager","bransch":"","org_nr":"","allabolag_url":"","hemsida":""},{"name":"Huskvarna Härdverkstad","lat":57.783913,"lng":14.314672,"city":"Jönköping","adress":"Hakarpsvägen 123 D","postnr":"56140","typ":"industrilokal","bransch":"","org_nr":"","allabolag_url":"","hemsida":""},{"name":"Albins Krom","lat":57.758731,"lng":14.143721,"city":"Jönköping","adress":"Kindgrensgatan 1","postnr":"55474","typ":"industrilokal","bransch":"","org_nr":"","allabolag_url":"","hemsida":"http://www.albinskrom.se/"},{"name":"Haga Industriområde","lat":57.756881,"lng":14.142023,"city":"Jönköping","adress":"Kindgrensgatan 6","postnr":"55474","typ":"lager","bransch":"","org_nr":"","allabolag_url":"","hemsida":""},{"name":"DHL Freight","lat":57.738177,"lng":14.165508,"city":"Jönköping","adress":"Verktygsvägen 19","postnr":"55614","typ":"lager","bransch":"","org_nr":"","allabolag_url":"","hemsida":""},{"name":"Arla","lat":57.740493,"lng":14.164845,"city":"Jönköping","adress":"Verktygsvägen 21","postnr":"55614","typ":"industrilokal","bransch":"","org_nr":"","allabolag_url":"","hemsida":""},{"name":"XL-BYGG Edvardssons","lat":57.887921,"lng":14.360471,"city":"Jönköping","adress":"Larssons väg 3","postnr":"56191","typ":"industrilokal","bransch":"","org_nr":"","allabolag_url":"","hemsida":""},{"name":"Postnord Paketterminal Torsvik","lat":57.67568,"lng":14.158953,"city":"Jönköping","adress":"Stolsvägen 1","postnr":"55652","typ":"distributionscenter","bransch":"","org_nr":"","allabolag_url":"","hemsida":""},{"name":"Bring Express","lat":57.673587,"lng":14.160953,"city":"Jönköping","adress":"Bordsvägen 3","postnr":"55652","typ":"industrilokal","bransch":"","org_nr":"","allabolag_url":"","hemsida":""},{"name":"Ekmans Jönköping","lat":57.688619,"lng":14.164601,"city":"Jönköping","adress":"Momarken 3","postnr":"55650","typ":"industrilokal","bransch":"","org_nr":"","allabolag_url":"","hemsida":""},{"name":"Vuab","lat":57.690899,"lng":14.152069,"city":"Jönköping","adress":"Alfavägen 2","postnr":"55650","typ":"industrilokal","bransch":"","org_nr":"","allabolag_url":"","hemsida":""},{"name":"Bubs Godis","lat":57.69172,"lng":14.148986,"city":"Jönköping","adress":"Betavägen 4","postnr":"55652","typ":"industrilokal","bransch":"","org_nr":"","allabolag_url":"","hemsida":""},{"name":"DB Scehnker","lat":57.749249,"lng":14.169973,"city":"Jönköping","adress":"Skruvgatan 1","postnr":"55302","typ":"lager","bransch":"","org_nr":"","allabolag_url":"","hemsida":""},{"name":"Däckia Jönköping","lat":57.756347,"lng":14.162156,"city":"Jönköping","adress":"Industrigatan 12","postnr":"55302","typ":"industrilokal","bransch":"","org_nr":"","allabolag_url":"","hemsida":""},{"name":"Tenhults Möbler Lager","lat":57.701205,"lng":14.329089,"city":"Jönköping","adress":"Centrumvägen","postnr":"56029","typ":"lager","bransch":"","org_nr":"","allabolag_url":"","hemsida":""},{"name":"Ebbes kraftstation","lat":57.785564,"lng":14.293615,"city":"Jönköping","adress":"Ådalsvägen","postnr":"56141","typ":"industrilokal","bransch":"","org_nr":"","allabolag_url":"","hemsida":""},{"name":"Danish Crown","lat":57.696611,"lng":14.137001,"city":"Jönköping","adress":"Barnarpsvägen 102","postnr":"55652","typ":"industrilokal","bransch":"","org_nr":"","allabolag_url":"","hemsida":""},{"name":"Hobby Fritid","lat":57.70587,"lng":14.317501,"city":"Jönköping","adress":"Mjälarydsvägen","postnr":"56029","typ":"industri","bransch":"","org_nr":"","allabolag_url":"","hemsida":""},{"name":"Haga Galvanisering","lat":57.759476,"lng":14.140297,"city":"Jönköping","adress":"Hagaleden 35","postnr":"55474","typ":"industrilokal","bransch":"","org_nr":"","allabolag_url":"","hemsida":""},{"name":"V-TAB","lat":57.70115,"lng":14.116097,"city":"Jönköping","adress":"Hammarvägen 39","postnr":"56232","typ":"industrilokal","bransch":"","org_nr":"","allabolag_url":"","hemsida":""},{"name":"Habil AB","lat":57.784088,"lng":14.230031,"city":"Jönköping","adress":"Sankt Göransvägen","postnr":"55454","typ":"industrilokal","bransch":"","org_nr":"","allabolag_url":"","hemsida":""},{"name":"Dagab","lat":57.697987,"lng":14.138289,"city":"Jönköping","adress":"Barnarpsvägen 100","postnr":"56232","typ":"lager","bransch":"","org_nr":"","allabolag_url":"","hemsida":""},{"name":"Stena Recycling AB","lat":57.676646,"lng":14.186927,"city":"Jönköping","adress":"Lovsjövägen 41","postnr":"555 92","typ":"industrilokal","bransch":"","org_nr":"","allabolag_url":"","hemsida":""},{"name":"Tabergs Åkeri","lat":57.683213,"lng":14.122855,"city":"Jönköping","adress":"Målövägen 8","postnr":"56233","typ":"industrilokal","bransch":"","org_nr":"","allabolag_url":"","hemsida":""},{"name":"Hedin Bil","lat":57.774608,"lng":14.21299,"city":"Jönköping","adress":"Bataljonsgatan","postnr":"55453","typ":"industrilokal","bransch":"","org_nr":"","allabolag_url":"","hemsida":""},{"name":"Lyreco","lat":57.865972,"lng":14.130187,"city":"Jönköping","adress":"Sjöåkravägen 27","postnr":"56434","typ":"industrilokal","bransch":"","org_nr":"","allabolag_url":"","hemsida":""},{"name":"Edeskvarna kraftstation","lat":57.871809,"lng":14.273933,"city":"Jönköping","adress":"E 4","postnr":"56146","typ":"industrilokal","bransch":"","org_nr":"","allabolag_url":"","hemsida":""},{"name":"Beijers Bygg","lat":57.760669,"lng":14.161092,"city":"Jönköping","adress":"Materialvägen","postnr":"55302","typ":"industrilokal","bransch":"","org_nr":"","allabolag_url":"","hemsida":""},{"name":"Wettersol AB","lat":57.869,"lng":14.113381,"city":"Jönköping","adress":"Tallvägen 4","postnr":"563 35","typ":"industrilokal","bransch":"","org_nr":"","allabolag_url":"","hemsida":""},{"name":"Thunderful","lat":57.68666,"lng":14.15364,"city":"Jönköping","adress":"Möbelvägen","postnr":"55652","typ":"industrilokal","bransch":"","org_nr":"","allabolag_url":"","hemsida":""},{"name":"M2","lat":58.381682,"lng":13.856145,"city":"Skövde","adress":"","postnr":"54136","typ":"industrilokal","bransch":"","org_nr":"","allabolag_url":"","hemsida":""},{"name":"F-Fabriken","lat":58.379212,"lng":13.859573,"city":"Skövde","adress":"","postnr":"54136","typ":"industrilokal","bransch":"","org_nr":"","allabolag_url":"","hemsida":""},{"name":"A-Fabriken","lat":58.383848,"lng":13.85432,"city":"Skövde","adress":"","postnr":"54136","typ":"industrilokal","bransch":"","org_nr":"","allabolag_url":"","hemsida":""},{"name":"M1","lat":58.383097,"lng":13.856711,"city":"Skövde","adress":"","postnr":"54136","typ":"industrilokal","bransch":"","org_nr":"","allabolag_url":"","hemsida":""},{"name":"Gjuteriet","lat":58.385564,"lng":13.855937,"city":"Skövde","adress":"John G. Grönvalls plats","postnr":"54137","typ":"industrilokal","bransch":"","org_nr":"","allabolag_url":"","hemsida":""},{"name":"D2","lat":58.38574,"lng":13.850498,"city":"Skövde","adress":"","postnr":"54136","typ":"industrilokal","bransch":"","org_nr":"","allabolag_url":"","hemsida":""},{"name":"Logent","lat":58.382277,"lng":13.878048,"city":"Skövde","adress":"Södra Aspelundsvägen 7","postnr":"54134","typ":"industrilokal","bransch":"","org_nr":"","allabolag_url":"","hemsida":""},{"name":"Aspelund","lat":58.396006,"lng":13.891232,"city":"Skövde","adress":"Storängsvägen 22","postnr":"54134","typ":"industri","bransch":"","org_nr":"","allabolag_url":"","hemsida":""},{"name":"Poståkeriet","lat":58.385807,"lng":13.875919,"city":"Skövde","adress":"Bäckaskogsvägen 10","postnr":"54134","typ":"logistikcenter","bransch":"","org_nr":"","allabolag_url":"","hemsida":""},{"name":"KosterFiskarn","lat":58.386843,"lng":13.880825,"city":"Skövde","adress":"Bäckaskogsvägen 3","postnr":"54134","typ":"industri","bransch":"","org_nr":"","allabolag_url":"","hemsida":"https://www.kosterfiskarn.se/"},{"name":"Skövde Värmeverk","lat":58.384352,"lng":13.884977,"city":"Skövde","adress":"Energivägen","postnr":"54134","typ":"industri","bransch":"","org_nr":"","allabolag_url":"","hemsida":""},{"name":"Cementa","lat":58.385233,"lng":13.826833,"city":"Skövde","adress":"Skaravägen","postnr":"54152","typ":"industri","bransch":"","org_nr":"","allabolag_url":"","hemsida":""},{"name":"Leax Arkivator","lat":58.165996,"lng":13.54111,"city":"Falköping","adress":"Göteborgsvägen 4","postnr":"52130","typ":"industrilokal","bransch":"","org_nr":"","allabolag_url":"","hemsida":""},{"name":"Falköpings Mejeri","lat":58.165306,"lng":13.546948,"city":"Falköping","adress":"Frejagatan 6","postnr":"52143","typ":"industri","bransch":"","org_nr":"","allabolag_url":"","hemsida":""},{"name":"Pellviks","lat":58.148979,"lng":13.563553,"city":"Falköping","adress":"Agnestadsgatan 2","postnr":"52140","typ":"industrilokal","bransch":"","org_nr":"","allabolag_url":"","hemsida":""},{"name":"Falköpings Bokbinderi","lat":58.172034,"lng":13.581552,"city":"Falköping","adress":"Sikagårdsgatan 6","postnr":"521 34","typ":"industrilokal","bransch":"","org_nr":"","allabolag_url":"","hemsida":""},{"name":"PR Slamsugning","lat":58.1605,"lng":13.544103,"city":"Falköping","adress":"Mossvägen 39","postnr":"521 30","typ":"industrilokal","bransch":"","org_nr":"","allabolag_url":"","hemsida":""},{"name":"Falköpings Bildemontering","lat":58.16322,"lng":13.542146,"city":"Falköping","adress":"Mossvägen 38","postnr":"521 30","typ":"industrilokal","bransch":"","org_nr":"","allabolag_url":"","hemsida":""},{"name":"Falköpings Tak","lat":58.165602,"lng":13.543985,"city":"Falköping","adress":"Mossvägen 21","postnr":"521 30","typ":"industrilokal","bransch":"","org_nr":"","allabolag_url":"","hemsida":""},{"name":"Fonus kistfabrik","lat":58.165319,"lng":13.576505,"city":"Falköping","adress":"Midfalegatan","postnr":"52145","typ":"industrilokal","bransch":"","org_nr":"","allabolag_url":"","hemsida":""},{"name":"Marjarpsverket","lat":58.1848,"lng":13.573035,"city":"Falköping","adress":"Energigatan 4","postnr":"52136","typ":"industrilokal","bransch":"","org_nr":"","allabolag_url":"","hemsida":""},{"name":"C&D Snickeri","lat":58.17962,"lng":13.568748,"city":"Falköping","adress":"Sidvallsgatan 4","postnr":"521 36","typ":"industrilokal","bransch":"","org_nr":"","allabolag_url":"","hemsida":""},{"name":"JB Villan","lat":58.225473,"lng":13.565102,"city":"Falköping","adress":"Solhemsvägen 4","postnr":"52174","typ":"industri","bransch":"","org_nr":"","allabolag_url":"","hemsida":""},{"name":"Arla","lat":58.183016,"lng":13.575935,"city":"Falköping","adress":"Energigatan 6","postnr":"52136","typ":"lager","bransch":"","org_nr":"","allabolag_url":"","hemsida":""},{"name":"Bronäs","lat":57.799654,"lng":13.415367,"city":"Ulricehamn","adress":"Tegelbruksgatan 7","postnr":"52344","typ":"industri","bransch":"","org_nr":"","allabolag_url":"","hemsida":""},{"name":"Vist","lat":57.832261,"lng":13.423439,"city":"Ulricehamn","adress":"Industrivägen 12","postnr":"52390","typ":"lager","bransch":"","org_nr":"","allabolag_url":"","hemsida":"https://www.bolon.com/"},{"name":"AP&T Sweden AB","lat":57.805438,"lng":13.458091,"city":"Ulricehamn","adress":"Rönnåsgatan","postnr":"52338","typ":"industrilokal","bransch":"","org_nr":"","allabolag_url":"","hemsida":"https://www.aptgroup.com/"},{"name":"LK Pex","lat":57.803699,"lng":13.456747,"city":"Ulricehamn","adress":"Rönnåsgatan 4","postnr":"52338","typ":"industrilokal","bransch":"","org_nr":"","allabolag_url":"","hemsida":""},{"name":"Wernersson Ost AB","lat":57.831459,"lng":13.420779,"city":"Ulricehamn","adress":"Industrivägen 5","postnr":"52390","typ":"industrilokal","bransch":"","org_nr":"","allabolag_url":"","hemsida":""},{"name":"Scand Trade Scandinavia AB","lat":57.807179,"lng":13.404774,"city":"Ulricehamn","adress":"Dalstigen 6","postnr":"52337","typ":"industrilokal","bransch":"","org_nr":"","allabolag_url":"","hemsida":"https://scantrade.se/"},{"name":"Vandewiele","lat":57.808517,"lng":13.408523,"city":"Ulricehamn","adress":"Karlsnäsvägen 7","postnr":"52337","typ":"industrilokal","bransch":"","org_nr":"","allabolag_url":"","hemsida":"https://www.iroab.com/"},{"name":"Bergman & Beving Logistics","lat":57.808219,"lng":13.413882,"city":"Ulricehamn","adress":"Vistaforsvägen 3","postnr":"52337","typ":"logistikcenter","bransch":"","org_nr":"","allabolag_url":"","hemsida":""},{"name":"Jobro Plåtkomponenter AB","lat":57.809948,"lng":13.409043,"city":"Ulricehamn","adress":"Karlsnäsvägen 9","postnr":"52337","typ":"industrilokal","bransch":"","org_nr":"","allabolag_url":"","hemsida":""},{"name":"Viab Ulricehamn AB","lat":57.802446,"lng":13.414382,"city":"Ulricehamn","adress":"Bronäsgatan 10","postnr":"52337","typ":"industrilokal","bransch":"","org_nr":"","allabolag_url":"","hemsida":"https://www.viabplast.se/"},{"name":"Craft of Scandinavia","lat":57.83624,"lng":13.424704,"city":"Ulricehamn","adress":"Industrivägen 24","postnr":"52390","typ":"lager","bransch":"","org_nr":"","allabolag_url":"","hemsida":""},{"name":"Myhre Miljöprodukter","lat":57.835721,"lng":13.421674,"city":"Ulricehamn","adress":"Industrivägen 15","postnr":"52390","typ":"industrilokal","bransch":"","org_nr":"","allabolag_url":"","hemsida":""},{"name":"Mastec Components AB","lat":57.834113,"lng":13.421402,"city":"Ulricehamn","adress":"Industrivägen 7","postnr":"52390","typ":"industrilokal","bransch":"","org_nr":"","allabolag_url":"","hemsida":""},{"name":"Botek Systems AB","lat":57.804284,"lng":13.463613,"city":"Ulricehamn","adress":"Rönnåsgatan 5A","postnr":"52338","typ":"industrilokal","bransch":"","org_nr":"","allabolag_url":"","hemsida":""},{"name":"Emballator Ulricehamn","lat":57.800135,"lng":13.446514,"city":"Ulricehamn","adress":"Maskinvägen 10","postnr":"52338","typ":"industrilokal","bransch":"","org_nr":"","allabolag_url":"","hemsida":"https://www.emballator.com/"},{"name":"Bogelack AB","lat":57.800839,"lng":13.443532,"city":"Ulricehamn","adress":"Hillaredsvägen 12","postnr":"52338","typ":"industrilokal","bransch":"","org_nr":"","allabolag_url":"","hemsida":"https://www.bogelack.se/"},{"name":"Ulricehamns Fixturteknik AB","lat":57.802246,"lng":13.441503,"city":"Ulricehamn","adress":"Hillaredsvägen 8","postnr":"52338","typ":"industrilokal","bransch":"","org_nr":"","allabolag_url":"","hemsida":"http://www.fixturteknik.se/"},{"name":"Engtex AB","lat":57.838561,"lng":13.424368,"city":"Ulricehamn","adress":"Industrivägen 32","postnr":"52390","typ":"industrilokal","bransch":"","org_nr":"","allabolag_url":"","hemsida":""},{"name":"Lager 157 Logistics","lat":57.801437,"lng":13.469315,"city":"Ulricehamn","adress":"Rönnåsliden 1A","postnr":"52338","typ":"logistikcenter","bransch":"","org_nr":"","allabolag_url":"","hemsida":""},{"name":"Logistikpartner AB","lat":57.800886,"lng":13.462194,"city":"Ulricehamn","adress":"Rönnåsliden 4","postnr":"52338","typ":"logistikcenter","bransch":"","org_nr":"","allabolag_url":"","hemsida":""},{"name":"Viared","lat":57.69906,"lng":12.84091,"city":"Borås","adress":"Viaredsvägen 18","postnr":"50464","typ":"industri","bransch":"","org_nr":"","allabolag_url":"","hemsida":""},{"name":"Mekonomen","lat":57.716635,"lng":12.95889,"city":"Borås","adress":"Enedalsgatan 11","postnr":"50452","typ":"industrilokal","bransch":"","org_nr":"","allabolag_url":"","hemsida":""},{"name":"DB Schenker","lat":57.689014,"lng":12.821809,"city":"Borås","adress":"Ryssnäsgatan 15","postnr":"50464","typ":"lager","bransch":"","org_nr":"","allabolag_url":"","hemsida":""},{"name":"TK PAC","lat":57.701707,"lng":12.841956,"city":"Borås","adress":"Företagsgatan 62","postnr":"50464","typ":"industrilokal","bransch":"","org_nr":"","allabolag_url":"","hemsida":"https://tkpac.se/"},{"name":"Scania","lat":57.709421,"lng":12.864801,"city":"Borås","adress":"Viaredsvägen 6","postnr":"50464","typ":"industrilokal","bransch":"","org_nr":"","allabolag_url":"","hemsida":""},{"name":"Hus 2","lat":57.716002,"lng":12.890202,"city":"Borås","adress":"Brinellgatan","postnr":"50462","typ":"industrilokal","bransch":"","org_nr":"","allabolag_url":"","hemsida":""},{"name":"Hus 3","lat":57.717085,"lng":12.892181,"city":"Borås","adress":"Brinellgatan","postnr":"50470","typ":"industrilokal","bransch":"","org_nr":"","allabolag_url":"","hemsida":""},{"name":"Hus 24","lat":57.715065,"lng":12.892654,"city":"Borås","adress":"Brinellgatan","postnr":"50470","typ":"industrilokal","bransch":"","org_nr":"","allabolag_url":"","hemsida":""},{"name":"ABC Vent","lat":57.720479,"lng":12.879948,"city":"Borås","adress":"Industrigatan 6","postnr":"504 62","typ":"industrilokal","bransch":"","org_nr":"","allabolag_url":"","hemsida":"https://www.abcvent.se/"},{"name":"Viared västra","lat":57.688152,"lng":12.803704,"city":"Borås","adress":"Prognosgatan","postnr":"51832","typ":"industri","bransch":"","org_nr":"","allabolag_url":"","hemsida":""},{"name":"Eton Systems","lat":57.695402,"lng":13.04261,"city":"Borås","adress":"","postnr":"50771","typ":"industrilokal","bransch":"","org_nr":"","allabolag_url":"","hemsida":"https://www.marksom.se"},{"name":"Brunngård","lat":57.702117,"lng":12.829858,"city":"Borås","adress":"Elementgatan 10A","postnr":"50464","typ":"lager","bransch":"","org_nr":"","allabolag_url":"","hemsida":"https://www.brunngard.com"},{"name":"Hus 38","lat":57.71409,"lng":12.890438,"city":"Borås","adress":"Brinellgatan","postnr":"50470","typ":"industrilokal","bransch":"","org_nr":"","allabolag_url":"","hemsida":""},{"name":"Sobacken kraftvärmeverk","lat":57.654416,"lng":12.909368,"city":"Borås","adress":"41","postnr":"51591","typ":"industri","bransch":"","org_nr":"","allabolag_url":"","hemsida":"https://www.borasem.se/webb/omborasenergiochmiljo/varaanlaggningar/energiochmiljocenter/kraftvarmeverket.4.1544b908169955a8b1a4a05d.html"},{"name":"NELLY.COM","lat":57.750596,"lng":12.961714,"city":"Borås","adress":"Bergkantsgatan 6","postnr":"506 49","typ":"lager","bransch":"","org_nr":"","allabolag_url":"","hemsida":""},{"name":"Rydboholms kraftverk","lat":57.651336,"lng":12.888756,"city":"Borås","adress":"Sven Eriksons väg 8B","postnr":"51570","typ":"industrilokal","bransch":"","org_nr":"","allabolag_url":"","hemsida":""},{"name":"Byggmax","lat":57.732177,"lng":12.92303,"city":"Borås","adress":"Getängsvägen","postnr":"50468","typ":"lager","bransch":"","org_nr":"","allabolag_url":"","hemsida":""},{"name":"Dalsjöfors Kött","lat":57.703574,"lng":13.067809,"city":"Borås","adress":"","postnr":"51690","typ":"industrilokal","bransch":"","org_nr":"","allabolag_url":"","hemsida":"https://dalsjöfors.com"},{"name":"Borås Energi och Miljö - Värmecentral Viared 1","lat":57.708905,"lng":12.851672,"city":"Borås","adress":"Företagsgatan 36","postnr":"50464","typ":"industrilokal","bransch":"","org_nr":"","allabolag_url":"","hemsida":""},{"name":"Sävelund","lat":57.940559,"lng":12.563854,"city":"Alingsås","adress":"Sävelundsgatan","postnr":"44138","typ":"industri","bransch":"","org_nr":"","allabolag_url":"","hemsida":""},{"name":"EDGE Emballage","lat":57.981389,"lng":12.593704,"city":"Alingsås","adress":"Vänersborgsvägen","postnr":"44192","typ":"industrilokal","bransch":"","org_nr":"","allabolag_url":"","hemsida":"https://www.edgeemballage.se/"},{"name":"Hallorstorp","lat":57.992639,"lng":12.652084,"city":"Alingsås","adress":"","postnr":"44192","typ":"industri","bransch":"","org_nr":"","allabolag_url":"","hemsida":""},{"name":"Bolltorp","lat":57.949921,"lng":12.530345,"city":"Alingsås","adress":"","postnr":"44158","typ":"industri","bransch":"","org_nr":"","allabolag_url":"","hemsida":""},{"name":"Rubena Produkter AB","lat":57.910126,"lng":12.51722,"city":"Alingsås","adress":"Rothoffkärrsvägen 20","postnr":"44142","typ":"industrilokal","bransch":"","org_nr":"","allabolag_url":"","hemsida":""},{"name":"Bussgaraget Alingsås","lat":57.936439,"lng":12.572121,"city":"Alingsås","adress":"Kastellgatan","postnr":"44138","typ":"industri","bransch":"","org_nr":"","allabolag_url":"","hemsida":""}]